{"map": [{"casualties": [{"c": "", "comb": "Union", "k": "", "t": "280", "w": ""}, {"c": "", "comb": "Confederacy", "k": "", "t": "249", "w": ""}], "coords": {"lat": 37.352861, "lon": -77.41225}, "startDate": "5/10/1864", "title": "Action at Chester Station", "victor": 4}, {"casualties": [{"c": "", "comb": "Union", "k": "", "t": "200", "w": ""}, {"c": "", "comb": "Confederacy", "k": "", "t": "", "w": ""}], "coords": {"lat": 34.4083, "lon": -84.9389}, "startDate": "5/17/1864", "title": "Battle of Adairsville", "victor": 1}, {"casualties": [{"c": "", "comb": "Union", "k": "", "t": "45-495", "w": ""}, {"c": "", "comb": "Confederacy", "k": "", "t": "50-251", "w": ""}], "coords": {"lat": 33.549444, "lon": -81.720556}, "startDate": "2/11/1865", "title": "Battle of Aiken", "victor": 2}, {"casualties": [{"c": "", "comb": "Union", "k": "", "t": "31", "w": ""}, {"c": "", "comb": "Confederacy", "k": "", "t": "57", "w": ""}], "coords": {"lat": 35.978561, "lon": -76.53694200000001}, "startDate": "5/5/1864", "title": "Battle of Albemarle Sound", "victor": 4}, {"casualties": [{"c": "", "comb": "Union", "k": "", "t": "305", "w": ""}, {"c": "", "comb": "Confederacy", "k": "", "t": "110-119", "w": ""}], "coords": {"lat": 38.9826, "lon": -77.6588}, "startDate": "6/17/1863", "title": "Battle of Aldie", "victor": 4}, {"casualties": [{"c": "", "comb": "Union", "k": "", "t": "706", "w": ""}, {"c": "", "comb": "Confederacy", "k": "", "t": "897", "w": ""}], "coords": {"lat": 34.116, "lon": -84.71600000000001}, "startDate": "10/5/1864", "title": "Battle of Allatoona", "victor": 1}, {"casualties": [{"c": "", "comb": "Union", "k": "", "t": "158", "w": ""}, {"c": "", "comb": "Confederacy", "k": "", "t": "100", "w": ""}], "coords": {"lat": 37.3344, "lon": -78.079}, "startDate": "4/5/1865", "title": "Battle of Amelia Springs", "victor": 4}, {"casualties": [{"c": "", "comb": "Union", "k": "", "t": "2", "w": ""}, {"c": "", "comb": "Confederacy", "k": "", "t": "0", "w": ""}], "coords": {"lat": 34.405159999999995, "lon": -82.45206999999999}, "startDate": "5/1/1865", "title": "Battle of Anderson", "victor": 4}, {"casualties": [{"c": "", "comb": "Union", "k": "", "t": "", "w": ""}, {"c": "", "comb": "Confederacy", "k": "", "t": "", "w": ""}], "coords": {"lat": 35.2, "lon": -87.04}, "startDate": "12/25/1864", "title": "Battle of Anthony's Hill", "victor": 2}, {"casualties": [{"c": 753.0, "comb": "Union", "k": "2108", "t": "12410", "w": "9549"}, {"c": "", "comb": "Confederacy", "k": "1567", "t": "10000-13000", "w": "8724"}], "coords": {"lat": 39.473333000000004, "lon": -77.744722}, "startDate": "9/17/1862", "title": "Battle of Antietam", "victor": 1}, {"casualties": [{"c": "", "comb": "Union", "k": "2", "t": "5", "w": "3"}, {"c": "", "comb": "Indians", "k": "66", "t": "66", "w": ""}], "coords": {"lat": 32.157, "lon": -109.45299999999999}, "endDate": "7/16/1862", "startDate": "7/15/1862", "title": "Battle of Apache Pass", "victor": 1}, {"casualties": [{"c": "", "comb": "Union", "k": "", "t": "164", "w": ""}, {"c": "", "comb": "Confederacy", "k": "", "t": "500", "w": ""}], "coords": {"lat": 37.377778, "lon": -78.794444}, "startDate": "4/9/1865", "title": "Battle of Appomattox Court House", "victor": 1}, {"casualties": [{"c": 3.0, "comb": "Union", "k": "5-32", "t": "48-121", "w": "40-86"}, {"c": "1000", "comb": "Confederacy", "k": "", "t": "1000+", "w": ""}], "coords": {"lat": 37.353472, "lon": -78.82730600000001}, "startDate": "4/8/1865", "title": "Battle of Appomattox Station", "victor": 1}, {"casualties": [{"c": "", "comb": "Union", "k": "", "t": "9", "w": "9"}, {"c": "", "comb": "Confederacy", "k": "", "t": "1", "w": "1"}], "coords": {"lat": 38.3893, "lon": -77.3157}, "endDate": "6/1/1861", "startDate": "5/29/1861", "title": "Battle of Aquia Creek", "victor": 4}, {"casualties": [{"c": "", "comb": "Union", "k": "134", "t": "1061", "w": ""}, {"c": "", "comb": "Confederacy", "k": "", "t": "709", "w": ""}], "coords": {"lat": 34.021, "lon": -91.34899999999999}, "endDate": "1/11/1863", "startDate": "1/9/1863", "title": "Battle of Arkansas Post", "victor": 1}, {"casualties": [{"c": "", "comb": "Union", "k": "", "t": "20", "w": ""}, {"c": "", "comb": "Confederacy", "k": "", "t": "30", "w": ""}], "coords": {"lat": 34.8033, "lon": -86.9722}, "startDate": "1/26/1864", "title": "Battle of Athens (Alabama)", "victor": 1}, {"casualties": [{"c": "", "comb": "Union", "k": "3", "t": "23", "w": "20"}, {"c": "", "comb": "Confederacy", "k": "31", "t": "31", "w": ""}], "coords": {"lat": 40.585, "lon": -91.696}, "startDate": "8/5/1861", "title": "Battle of Athens (Missouri)", "victor": 1}, {"casualties": [{"c": "", "comb": "Union", "k": "", "t": "3641", "w": ""}, {"c": "", "comb": "Confederacy", "k": "", "t": "5500", "w": ""}], "coords": {"lat": 33.7459, "lon": -84.3488}, "startDate": "7/22/1864", "title": "Battle of Atlanta", "victor": 1}, {"casualties": [{"c": "", "comb": "Union", "k": "", "t": "682", "w": ""}, {"c": "", "comb": "Confederacy", "k": "", "t": "865", "w": ""}], "coords": {"lat": 35.25, "lon": -78.690278}, "startDate": "3/16/1865", "title": "Battle of Averasborough", "victor": 4}, {"casualties": [{"c": 553.0, "comb": "Union", "k": "223", "t": "1002", "w": "226"}, {"c": "2", "comb": "Confederacy", "k": "36", "t": "155", "w": "117"}], "coords": {"lat": 39.1282, "lon": -77.5277}, "startDate": "10/21/1861", "title": "Battle of Ball's Bluff", "victor": 2}, {"casualties": [{"c": 13.0, "comb": "Union", "k": "1", "t": "15", "w": "1"}, {"c": "", "comb": "Confederacy", "k": "7", "t": "7", "w": ""}], "coords": {"lat": 36.861111, "lon": -83.87944399999999}, "startDate": "9/19/1861", "title": "Battle of Barbourville", "victor": 2}, {"casualties": [{"c": "", "comb": "Union", "k": "", "t": "371", "w": ""}, {"c": "", "comb": "Confederacy", "k": "", "t": "478", "w": ""}], "coords": {"lat": 30.451, "lon": -91.1676}, "startDate": "8/5/1862", "title": "Battle of Baton Rouge", "victor": 1}, {"casualties": [{"c": "", "comb": "Union", "k": "113", "t": "131", "w": "18"}, {"c": "", "comb": "Confederacy", "k": "2", "t": "4", "w": "2"}], "coords": {"lat": 37.0308, "lon": -94.735}, "startDate": "10/6/1863", "title": "Battle of Baxter Springs", "victor": 1}, {"casualties": [{"c": "", "comb": "Union", "k": "26", "t": "26", "w": ""}, {"c": "", "comb": "Confederacy", "k": "42", "t": "42", "w": ""}], "coords": {"lat": 30.4125, "lon": -92.089722}, "startDate": "11/3/1863", "title": "Battle of Bayou Bourbeux", "victor": 1}, {"casualties": [{"c": "", "comb": "Union", "k": "", "t": "72", "w": ""}, {"c": "", "comb": "Confederacy", "k": "", "t": "64", "w": ""}], "coords": {"lat": 34.7154, "lon": -92.12899999999999}, "startDate": "9/10/1863", "title": "Battle of Bayou Fourche", "victor": 1}, {"casualties": [{"c": "", "comb": "Union", "k": "", "t": "", "w": ""}, {"c": "", "comb": "Confederacy", "k": "7", "t": "45", "w": "38"}], "coords": {"lat": 34.843581, "lon": -92.122061}, "startDate": "8/27/1863", "title": "Battle of Bayou Meto", "victor": 2}, {"casualties": [{"c": "", "comb": "Union", "k": "", "t": "700", "w": ""}, {"c": "", "comb": "Confederacy", "k": "", "t": "900", "w": ""}], "coords": {"lat": 36.3248, "lon": -83.369}, "startDate": "12/14/1863", "title": "Battle of Bean's Station", "victor": 2}, {"casualties": [{"c": 105.0, "comb": "Union", "k": "49", "t": "361", "w": "207"}, {"c": "", "comb": "Confederacy", "k": "", "t": "1484", "w": ""}], "coords": {"lat": 37.5985, "lon": -77.3599}, "startDate": "6/26/1862", "title": "Battle of Beaver Dam Creek", "victor": 1}, {"casualties": [{"c": 104.0, "comb": "Union", "k": "120", "t": "607", "w": "383"}, {"c": "117", "comb": "Confederacy", "k": "105", "t": "641", "w": "419"}], "coords": {"lat": 36.7657, "lon": -89.124}, "startDate": "11/7/1861", "title": "Battle of Belmont", "victor": 1}, {"casualties": [{"c": 221.0, "comb": "Union", "k": "194", "t": "1527", "w": "1112"}, {"c": "673", "comb": "Confederacy", "k": "239", "t": "2606", "w": "1694"}], "coords": {"lat": 35.2532, "lon": -78.6708}, "endDate": "3/21/1865", "startDate": "3/19/1865", "title": "Battle of Bentonville", "victor": 1}, {"casualties": [{"c": "", "comb": "Union", "k": "", "t": "314", "w": ""}, {"c": "", "comb": "Confederacy", "k": "", "t": "295", "w": ""}], "coords": {"lat": 39.162083, "lon": -77.997556}, "endDate": "9/4/1864", "startDate": "9/3/1864", "title": "Battle of Berryville", "victor": 4}, {"casualties": [{"c": 5.0, "comb": "Union", "k": "18", "t": "76", "w": "53"}, {"c": "", "comb": "Confederacy", "k": "1", "t": "8", "w": "7"}], "coords": {"lat": 37.0937, "lon": -76.425}, "startDate": "6/10/1861", "title": "Battle of Big Bethel", "victor": 2}, {"casualties": [{"c": "", "comb": "Union", "k": "", "t": "276", "w": ""}, {"c": "", "comb": "Confederacy", "k": "", "t": "1751", "w": ""}], "coords": {"lat": 32.3471, "lon": -90.7043}, "startDate": "5/17/1863", "title": "Battle of Big Black River Bridge", "victor": 1}, {"casualties": [{"c": "", "comb": "Union", "k": "3", "t": "7", "w": "4"}, {"c": "", "comb": "Indians", "k": "9", "t": "9", "w": ""}], "coords": {"lat": 47.024035999999995, "lon": -99.629087}, "startDate": "7/24/1863", "title": "Battle of Big Mound", "victor": 1}, {"casualties": [{"c": "", "comb": "Union", "k": "13", "t": "60", "w": "47"}, {"c": "", "comb": "Indians", "k": "", "t": "2", "w": ""}], "coords": {"lat": 44.576389, "lon": -94.974722}, "startDate": "9/2/1862", "title": "Battle of Birch Coulee", "victor": 3}, {"casualties": [{"c": "", "comb": "Union", "k": "", "t": "83", "w": ""}, {"c": "", "comb": "Confederacy", "k": "", "t": "68", "w": ""}], "coords": {"lat": 38.804167, "lon": -77.449167}, "startDate": "7/18/1861", "title": "Battle of Blackburn's Ford", "victor": 2}, {"casualties": [{"c": "", "comb": "Union", "k": "", "t": "7", "w": ""}, {"c": "", "comb": "Confederacy", "k": "", "t": "200", "w": ""}], "coords": {"lat": 31.941, "lon": -93.289}, "endDate": "4/13/1864", "startDate": "4/12/1864", "title": "Battle of Blair's Landing", "victor": 1}, {"casualties": [{"c": "", "comb": "Union", "k": "", "t": "27", "w": ""}, {"c": "", "comb": "Confederacy", "k": "", "t": "165", "w": ""}], "coords": {"lat": 36.533333, "lon": -82.326389}, "startDate": "9/22/1863", "title": "Battle of Blountville", "victor": 1}, {"casualties": [{"c": "", "comb": "Union", "k": "", "t": "100", "w": ""}, {"c": "", "comb": "Confederacy", "k": "", "t": "216", "w": ""}], "coords": {"lat": 36.1934, "lon": -82.9373}, "startDate": "10/10/1863", "title": "Battle of Blue Springs", "victor": 1}, {"casualties": [{"comb": "Union"}, {"comb": "Confederacy"}, {"t": 100.0}], "coords": {"lat": 39.5254, "lon": -77.6632}, "startDate": "7/8/1863", "title": "Battle of Boonsboro", "victor": 4}, {"casualties": [{"c": 486.0, "comb": "Union", "k": "69", "t": "907", "w": "352"}, {"c": "", "comb": "Confederacy", "k": "", "t": "523", "w": ""}], "coords": {"lat": 38.5018, "lon": -77.8936}, "startDate": "6/9/1863", "title": "Battle of Brandy Station", "victor": 4}, {"casualties": [{"c": "", "comb": "Union", "k": "", "t": "305", "w": ""}, {"c": "", "comb": "Confederacy", "k": "", "t": "6", "w": ""}], "coords": {"lat": 36.0363, "lon": -86.7855}, "startDate": "3/25/1863", "title": "Battle of Brentwood", "victor": 2}, {"casualties": [{"c": "", "comb": "Union", "k": "223", "t": "2240", "w": "2017"}, {"c": "", "comb": "Confederacy", "k": "80", "t": "492", "w": "412"}], "coords": {"lat": 34.506111, "lon": -88.728889}, "startDate": "6/10/1864", "title": "Battle of Brice's Crossroads", "victor": 2}, {"casualties": [{"c": "", "comb": "Union", "k": "", "t": "540", "w": ""}, {"c": "", "comb": "Confederacy", "k": "", "t": "1380", "w": ""}], "coords": {"lat": 38.7234, "lon": -77.5418}, "startDate": "10/14/1863", "title": "Battle of Bristoe Station", "victor": 1}, {"casualties": [{"c": "", "comb": "Union", "k": "", "t": "100", "w": ""}, {"c": "", "comb": "Confederacy", "k": "", "t": "50", "w": ""}], "coords": {"lat": 33.35, "lon": -84.76}, "startDate": "7/30/1864", "title": "Battle of Brown's Mill", "victor": 2}, {"casualties": [{"c": "", "comb": "Union", "k": "", "t": "46", "w": ""}, {"c": "", "comb": "Confederacy", "k": "", "t": "600", "w": ""}], "coords": {"lat": 32.8991, "lon": -82.0255}, "startDate": "11/28/1864", "title": "Battle of Buck Head Creek", "victor": 1}, {"casualties": [{"comb": "Union"}, {"comb": "Confederacy"}, {"t": 230.0}], "coords": {"lat": 38.7747, "lon": -77.692}, "startDate": "10/19/1863", "title": "Battle of Buckland Mills", "victor": 2}, {"casualties": [{"c": "", "comb": "Union", "k": "25", "t": "25", "w": ""}, {"c": "750", "comb": "Confederacy", "k": "52", "t": "902", "w": "100"}], "coords": {"lat": 38.991111, "lon": -81.771389}, "startDate": "7/19/1863", "title": "Battle of Buffington Island", "victor": 1}, {"casualties": [{"c": "", "comb": "Union", "k": "", "t": "241", "w": ""}, {"c": "", "comb": "Confederacy", "k": "", "t": "", "w": ""}], "coords": {"lat": 36.251999999999995, "lon": -83.081}, "startDate": "11/13/1864", "title": "Battle of Bull's Gap", "victor": 2}, {"casualties": [{"c": "", "comb": "Union", "k": "", "t": "", "w": ""}, {"c": "", "comb": "Confederacy", "k": "", "t": "", "w": ""}], "coords": {"lat": 39.0228, "lon": -94.5307}, "endDate": "10/23/1864", "startDate": "10/22/1864", "title": "Battle of Byram's Ford", "victor": 1}, {"casualties": [{"c": "", "comb": "Union", "k": "2", "t": "27", "w": "25"}, {"c": "", "comb": "Confederacy", "k": "1", "t": "2", "w": "1"}], "coords": {"lat": 39.453333, "lon": -94.745278}, "startDate": "7/13/1864", "title": "Battle of Camden Point", "victor": 1}, {"casualties": [{"c": "", "comb": "Union", "k": "", "t": "137", "w": ""}, {"c": "23", "comb": "Confederacy", "k": "25", "t": "145", "w": "97"}], "coords": {"lat": 38.473889, "lon": -79.72444399999999}, "startDate": "12/13/1861", "title": "Battle of Camp Allegheny", "victor": 4}, {"casualties": [{"c": "", "comb": "Union", "k": "5", "t": "25", "w": "20"}, {"c": "42", "comb": "Confederacy", "k": "11", "t": "53", "w": ""}], "coords": {"lat": 37.11, "lon": -84.12}, "startDate": "10/21/1861", "title": "Battle of Camp Wildcat", "victor": 1}, {"casualties": [{"c": "", "comb": "Union", "k": "", "t": "400", "w": ""}, {"c": "", "comb": "Confederacy", "k": "", "t": "570", "w": ""}], "coords": {"lat": 35.8846, "lon": -84.1539}, "startDate": "11/16/1863", "title": "Battle of Campbell's Station", "victor": 1}, {"casualties": [{"c": 23.0, "comb": "Union", "k": "4", "t": "33", "w": "6"}, {"c": "", "comb": "Confederacy", "k": "2", "t": "9", "w": "7"}], "coords": {"lat": 36.542533500000005, "lon": -106.16016599999999}, "endDate": "9/25/1861", "startDate": "9/24/1861", "title": "Battle of Canada Alamosa", "victor": 1}, {"casualties": [{"c": "", "comb": "Union", "k": "", "t": "41", "w": ""}, {"c": "", "comb": "Confederacy", "k": "", "t": "45", "w": ""}], "coords": {"lat": 35.9066, "lon": -94.3998}, "startDate": "11/28/1862", "title": "Battle of Cane Hill", "victor": 2}, {"casualties": [{"c": "", "comb": "Union", "k": "", "t": "", "w": ""}, {"c": 234.0, "comb": "Indians", "k": "23", "t": "262", "w": 5.0}], "coords": {"lat": 36.155278, "lon": -109.508889}, "endDate": "1/14/1864", "startDate": "1/12/1864", "title": "Battle of Canyon de Chelly", "victor": 1}, {"casualties": [{"c": "", "comb": "Union", "k": "", "t": "12", "w": ""}, {"c": "", "comb": "Confederacy", "k": "", "t": "325", "w": ""}], "coords": {"lat": 37.3132, "lon": -89.5514}, "startDate": "4/26/1863", "title": "Battle of Cape Girardeau", "victor": 1}, {"casualties": [{"c": "", "comb": "Union", "k": "1", "t": "13", "w": "12"}, {"c": "", "comb": "Confederacy", "k": "", "t": "8", "w": ""}], "coords": {"lat": 40.2011, "lon": -77.1845}, "startDate": "7/1/1863", "title": "Battle of Carlisle", "victor": 4}, {"casualties": [{"c": "", "comb": "Union", "k": "17", "t": "158", "w": "141"}, {"c": "", "comb": "Confederacy", "k": "", "t": "30+", "w": "30"}], "coords": {"lat": 38.208889, "lon": -80.938611}, "startDate": "9/10/1861", "title": "Battle of Carnifex Ferry", "victor": 1}, {"casualties": [{"c": "", "comb": "Union", "k": "", "t": "44", "w": ""}, {"c": "", "comb": "Confederacy", "k": "", "t": "200", "w": ""}], "coords": {"lat": 37.2, "lon": -94.34}, "startDate": "7/5/1861", "title": "Battle of Carthage", "victor": 2}, {"casualties": [{"c": 1591.0, "comb": "Union", "k": "644", "t": "5665", "w": ""}, {"c": "1050", "comb": "Confederacy", "k": "320", "t": "2910", "w": "1540"}], "coords": {"lat": 39.02081, "lon": -78.3038}, "startDate": "10/19/1864", "title": "Battle of Cedar Creek", "victor": 1}, {"casualties": [{"c": 594.0, "comb": "Union", "k": "314", "t": "2353", "w": "1445"}, {"c": "", "comb": "Confederacy", "k": "231", "t": "1338", "w": "1107"}], "coords": {"lat": 38.4014, "lon": -78.0658}, "startDate": "8/9/1862", "title": "Battle of Cedar Mountain", "victor": 2}, {"casualties": [{"c": 649.0, "comb": "Union", "k": "391", "t": "3372", "w": "2317"}, {"c": "500", "comb": "Confederacy", "k": "250", "t": "2000", "w": "1250"}], "coords": {"lat": 37.4268, "lon": -77.3729}, "endDate": "9/30/1864", "startDate": "9/29/1864", "title": "Battle of Chaffin's Farm and New Market Heights", "victor": 1}, {"casualties": [{"c": 53.0, "comb": "Union", "k": "23", "t": "120", "w": "44"}, {"c": "120", "comb": "Confederacy", "k": "30", "t": "210", "w": "60"}], "coords": {"lat": 36.47726, "lon": -90.15883000000001}, "endDate": "5/2/1863", "startDate": "5/1/1863", "title": "Battle of Chalk Bluff", "victor": 1}, {"casualties": [{"c": 187.0, "comb": "Union", "k": "410", "t": "2457", "w": "1844"}, {"c": "2441", "comb": "Confederacy", "k": "381", "t": "3840", "w": "1018"}], "coords": {"lat": 32.3296, "lon": -90.5303}, "startDate": "5/16/1863", "title": "Battle of Champion Hill", "victor": 1}, {"casualties": [{"c": 5919.0, "comb": "Union", "k": "1606", "t": "17287", "w": "9762"}, {"c": "2018", "comb": "Confederacy", "k": "1665", "t": "13303", "w": "9081"}], "coords": {"lat": 38.3105, "lon": -77.6484}, "endDate": "5/6/1863", "startDate": "4/30/1863", "title": "Battle of Chancellorsville", "victor": 2}, {"casualties": [{"c": "", "comb": "Union", "k": "", "t": "1300", "w": ""}, {"c": "", "comb": "Confederacy", "k": "", "t": "800", "w": ""}], "coords": {"lat": 38.864509999999996, "lon": -77.36949}, "startDate": "9/1/1862", "title": "Battle of Chantill", "victor": 4}, {"casualties": [{"c": "", "comb": "Union", "k": "", "t": "", "w": ""}, {"c": "", "comb": "Confederacy", "k": "", "t": "", "w": ""}], "coords": {"lat": 36.921389000000005, "lon": -89.346389}, "startDate": "8/19/1861", "title": "Battle of Charleston (Missouri)", "victor": 1}, {"casualties": [{"c": "", "comb": "Union", "k": "", "t": "", "w": ""}, {"c": "", "comb": "Confederacy", "k": "", "t": "", "w": ""}], "coords": {"lat": 38.347221999999995, "lon": -81.633333}, "startDate": "9/13/1862", "title": "Battle of Charleston (Virginia)", "victor": 2}, {"casualties": [{"c": "", "comb": "Union", "k": "", "t": "88", "w": ""}, {"c": "", "comb": "Confederacy", "k": "", "t": "90", "w": ""}], "coords": {"lat": 38.621389, "lon": -79.880556}, "endDate": "9/15/1861", "startDate": "9/12/1861", "title": "Battle of Cheat Mountain", "victor": 1}, {"casualties": [{"c": 4757.0, "comb": "Union", "k": "1657", "t": "16170", "w": "9756"}, {"c": "1468", "comb": "Confederacy", "k": "2312", "t": "18454", "w": "14674"}], "coords": {"lat": 34.9176, "lon": -85.2606}, "endDate": "9/20/1863", "startDate": "9/18/1863", "title": "Battle of Chickamauga", "victor": 2}, {"casualties": [{"c": 563.0, "comb": "Union", "k": "208", "t": "1776", "w": "1005"}, {"c": "10", "comb": "Confederacy", "k": "63", "t": "187", "w": "134"}], "coords": {"lat": 32.399, "lon": -90.854}, "endDate": "12/29/1862", "startDate": "12/26/1862", "title": "Battle of Chickasaw Bayou", "victor": 2}, {"casualties": [{"c": "", "comb": "Confederacy", "k": "9", "t": "49", "w": "40"}, {"c": "", "comb": "Indians", "k": "250", "t": "250", "w": ""}], "coords": {"lat": 36.3878, "lon": -96.0752}, "startDate": "12/26/1861", "title": "Battle of Chustenahlah", "victor": 2}, {"casualties": [{"c": "", "comb": "Confederacy", "k": "30", "t": "67", "w": "37"}, {"c": "", "comb": "Indians", "k": "9", "t": "500", "w": ""}], "coords": {"lat": 36.2823, "lon": -95.9502}, "startDate": "12/9/1861", "title": "Battle of Chusto-Talasah", "victor": 2}, {"casualties": [{"c": "", "comb": "Union", "k": "9", "t": "46", "w": "37"}, {"c": "", "comb": "Confederacy", "k": "", "t": "0", "w": ""}], "coords": {"lat": 36.9207, "lon": -92.4888}, "startDate": "11/7/1862", "title": "Battle of Clark's Mill", "victor": 2}, {"casualties": [{"c": "", "comb": "Union", "k": "", "t": "688", "w": ""}, {"c": "", "comb": "Confederacy", "k": "", "t": "538", "w": ""}], "coords": {"lat": 37.174583, "lon": -80.709}, "startDate": "5/9/1864", "title": "Battle of Cloyd's Mountain", "victor": 1}, {"casualties": [{"c": "", "comb": "Union", "k": "", "t": "", "w": ""}, {"c": "", "comb": "Confederacy", "k": "", "t": "", "w": ""}], "coords": {"lat": 37.934722, "lon": -75.367778}, "startDate": "10/5/1861", "title": "Battle of Cockle Creek", "victor": 1}, {"casualties": [{"c": "", "comb": "Union", "k": "", "t": "", "w": ""}, {"c": "", "comb": "Confederacy", "k": "", "t": "", "w": ""}], "coords": {"lat": 38.5586, "lon": -77.2642}, "startDate": "1/3/1862", "title": "Battle of Cockpit Point", "victor": 4}, {"casualties": [{"c": 1816.0, "comb": "Union", "k": "1845", "t": "12738", "w": "9077"}, {"c": "1123", "comb": "Confederacy", "k": "788", "t": "5287", "w": "3376"}], "coords": {"lat": 37.59, "lon": -77.285}, "endDate": "6/12/1864", "startDate": "5/31/1864", "title": "Battle of Cold Harbor", "victor": 2}, {"casualties": [{"c": 25.0, "comb": "Union", "k": "35", "t": "120", "w": "60"}, {"c": "", "comb": "Confederacy", "k": "7", "t": "32", "w": "25"}], "coords": {"lat": 38.3, "lon": -93.29}, "startDate": "6/19/1861", "title": "Battle of Cole Camp", "victor": 2}, {"casualties": [{"c": "", "comb": "Union", "k": "", "t": "60", "w": ""}, {"c": "", "comb": "Confederacy", "k": "", "t": "95", "w": ""}], "coords": {"lat": 35.044000000000004, "lon": -89.6645}, "startDate": "11/3/1863", "title": "Battle of Collierville", "victor": 1}, {"casualties": [{"c": "", "comb": "Union", "k": "", "t": "", "w": ""}, {"c": "", "comb": "Confederacy", "k": "", "t": "", "w": ""}], "coords": {"lat": 35.6163, "lon": -87.0488}, "endDate": "11/29/1864", "startDate": "11/24/1864", "title": "Battle of Columbia", "victor": 2}, {"casualties": [{"c": "", "comb": "Union", "k": "", "t": "60", "w": ""}, {"c": "", "comb": "Confederacy", "k": "", "t": "80", "w": ""}], "coords": {"lat": 32.467, "lon": -84.99700000000001}, "startDate": "4/16/1865", "title": "Battle of Columbus", "victor": 1}, {"casualties": [{"c": "", "comb": "Union", "k": "", "t": "0", "w": ""}, {"c": "", "comb": "Confederacy", "k": "", "t": "", "w": ""}], "coords": {"lat": 39.743333, "lon": -93.6275}, "startDate": "8/11/1862", "title": "Battle of Compton's Ferry", "victor": 1}, {"casualties": [{"c": "", "comb": "Union", "k": "", "t": "422", "w": ""}, {"c": "", "comb": "Confederacy", "k": "", "t": "397", "w": ""}], "coords": {"lat": 39.1457, "lon": -77.865}, "endDate": "7/18/1864", "startDate": "7/17/1864", "title": "Battle of Cool Spring", "victor": 2}, {"casualties": [{"c": "", "comb": "Union", "k": "", "t": "53", "w": ""}, {"c": "600", "comb": "Confederacy", "k": "20", "t": "620", "w": ""}], "coords": {"lat": 39.087778, "lon": -79.685}, "startDate": "7/13/1861", "title": "Battle of Corrick's Ford", "victor": 1}, {"casualties": [{"c": 355.0, "comb": "Union", "k": "4", "t": "371", "w": "12"}, {"c": "", "comb": "Confederacy", "k": "11", "t": "51", "w": "40"}], "coords": {"lat": 38.199, "lon": -86.12899999999999}, "startDate": "7/9/1863", "title": "Battle of Corydon", "victor": 2}, {"casualties": [{"c": "", "comb": "Union", "k": "", "t": "63", "w": ""}, {"c": "", "comb": "Confederacy", "k": "", "t": "245", "w": ""}], "coords": {"lat": 35.0365, "lon": -91.29299999999999}, "startDate": "7/7/1862", "title": "Battle of Cotton Plant", "victor": 1}, {"casualties": [{"comb": "Union"}, {"comb": "Confederacy"}, {"t": 300.0}], "coords": {"lat": 37.0092, "lon": -81.07321999999999}, "startDate": "5/10/1864", "title": "Battle of Cove Mountain", "victor": 4}, {"casualties": [{"c": 2.0, "comb": "Union", "k": "115", "t": "533", "w": "416"}, {"c": "", "comb": "Confederacy", "k": "130", "t": "887", "w": "759"}], "coords": {"lat": 39.406, "lon": -77.6398}, "startDate": "9/14/1862", "title": "Battle of Crampton's Gap/ Burkittsville", "victor": 1}, {"casualties": [{"c": "", "comb": "Union", "k": "", "t": "664", "w": ""}, {"c": "", "comb": "Confederacy", "k": "", "t": "287", "w": ""}], "coords": {"lat": 38.3579, "lon": -78.8438}, "startDate": "6/8/1862", "title": "Battle of Cross Keys", "victor": 2}, {"casualties": [{"c": "", "comb": "Union", "k": "", "t": "645", "w": ""}, {"c": "", "comb": "Confederacy", "k": "", "t": "255", "w": ""}], "coords": {"lat": 37.3464, "lon": -78.3866}, "startDate": "4/7/1865", "title": "Battle of Cumberland Church", "victor": 2}, {"casualties": [{"c": "", "comb": "Union", "k": "", "t": "1092", "w": ""}, {"c": "", "comb": "Confederacy", "k": "", "t": "1000", "w": ""}], "coords": {"lat": 38.407, "lon": -84.3056}, "endDate": "6/12/1864", "startDate": "6/11/1864", "title": "Battle of Cynthiana", "victor": 1}, {"casualties": [{"c": "", "comb": "Union", "k": "", "t": "2400", "w": ""}, {"c": "", "comb": "Confederacy", "k": "", "t": "3000", "w": ""}], "coords": {"lat": 33.9127, "lon": -84.82799999999999}, "endDate": "6/1/1864", "startDate": "5/26/1864", "title": "Battle of Dallas", "victor": 1}, {"casualties": [{"c": "", "comb": "Union", "k": "40", "t": "95", "w": "55"}, {"c": "", "comb": "Confederacy", "k": "", "t": "150", "w": ""}], "coords": {"lat": 34.7889, "lon": -84.9807}, "endDate": "8/15/1864", "startDate": "8/14/1864", "title": "Battle of Dalton", "victor": 1}, {"casualties": [{"c": "", "comb": "Union", "k": "", "t": "150", "w": ""}, {"c": "", "comb": "Confederacy", "k": "", "t": "", "w": ""}], "coords": {"lat": 36.0472, "lon": -83.3493}, "startDate": "1/17/1864", "title": "Battle of Dandridge", "victor": 2}, {"casualties": [{"c": 43.0, "comb": "Union", "k": "36", "t": "437", "w": "358"}, {"c": "", "comb": "Confederacy", "k": "", "t": "513", "w": ""}], "coords": {"lat": 37.483000000000004, "lon": -77.3574}, "startDate": "10/7/1864", "title": "Battle of Darbytown Road", "victor": 2}, {"casualties": [{"c": 156.0, "comb": "Union", "k": "49", "t": "458", "w": "253"}, {"c": "", "comb": "Confederacy", "k": "", "t": "700", "w": ""}], "coords": {"lat": 37.4576, "lon": -77.3467}, "startDate": "10/7/1864", "title": "Battle of Darbytown and New Market Roads", "victor": 1}, {"casualties": [{"c": "", "comb": "Union", "k": "", "t": "", "w": ""}, {"c": "", "comb": "Confederacy", "k": "", "t": "", "w": ""}], "coords": {"lat": 34.7557, "lon": -85.368}, "endDate": "9/11/1863", "startDate": "9/10/1863", "title": "Battle of Davis's Cross Roads", "victor": 4}, {"casualties": [{"c": "", "comb": "Union", "k": "", "t": "23", "w": ""}, {"c": "", "comb": "Confederacy", "k": "", "t": "65", "w": ""}], "coords": {"lat": 34.3096, "lon": -87.01100000000001}, "startDate": "4/30/1863", "title": "Battle of Day's Gap", "victor": 1}, {"casualties": [{"c": "", "comb": "Union", "k": "1", "t": "1", "w": ""}, {"c": "", "comb": "Indians", "k": "15", "t": "15", "w": ""}], "coords": {"lat": 46.8961, "lon": -99.7846}, "startDate": "7/26/1863", "title": "Battle of Dead Buffalo Lake", "victor": 1}, {"casualties": [{"c": "", "comb": "Union", "k": "", "t": "155", "w": ""}, {"c": "", "comb": "Confederacy", "k": "", "t": "450", "w": ""}], "coords": {"lat": 34.614000000000004, "lon": -86.986}, "endDate": "10/29/1864", "startDate": "10/26/1864", "title": "Battle of Decatur", "victor": 1}, {"casualties": [{"c": "", "comb": "Union", "k": "", "t": "16", "w": ""}, {"c": "", "comb": "Confederacy", "k": "", "t": "65", "w": ""}], "coords": {"lat": 35.1785, "lon": -94.3106}, "startDate": "9/1/1863", "title": "Battle of Devil's Backbone", "victor": 1}, {"casualties": [{"c": "", "comb": "Union", "k": "", "t": "354", "w": ""}, {"c": "", "comb": "Confederacy", "k": "", "t": "760", "w": ""}], "coords": {"lat": 37.07725, "lon": -77.58711}, "startDate": "3/31/1865", "title": "Battle of Dinwiddie Court House", "victor": 2}, {"casualties": [{"c": "", "comb": "Confederacy", "k": "22", "t": "41", "w": "19"}, {"c": "", "comb": "Indians", "k": "14", "t": "14", "w": ""}], "coords": {"lat": 31.41, "lon": -100.46}, "startDate": "1/16/1865", "title": "Battle of Dove Creek", "victor": 3}, {"casualties": [{"c": "", "comb": "Union", "k": "", "t": "126", "w": ""}, {"c": "", "comb": "Confederacy", "k": "", "t": "670", "w": ""}], "coords": {"lat": 36.48485, "lon": -87.85746999999999}, "startDate": "2/3/1863", "title": "Battle of Dover", "victor": 1}, {"casualties": [{"c": "", "comb": "Union", "k": "", "t": "71", "w": ""}, {"c": "", "comb": "Confederacy", "k": "", "t": "230", "w": ""}], "coords": {"lat": 38.995472, "lon": -77.337194}, "startDate": "12/20/1861", "title": "Battle of Dranesville", "victor": 1}, {"casualties": [{"c": "", "comb": "Union", "k": "24", "t": "24", "w": ""}, {"c": "", "comb": "Confederacy", "k": "15", "t": "15", "w": ""}], "coords": {"lat": 37.4211, "lon": -77.4229}, "startDate": "5/15/1862", "title": "Battle of Drewry's Bluff", "victor": 2}, {"casualties": [{"c": "", "comb": "Union", "k": "", "t": "119", "w": ""}, {"c": "", "comb": "Confederacy", "k": "", "t": "275", "w": ""}], "coords": {"lat": 38.1128, "lon": -80.274}, "startDate": "11/6/1863", "title": "Battle of Droop Mountain", "victor": 1}, {"casualties": [{"c": "", "comb": "Union", "k": "", "t": "14", "w": ""}, {"c": "", "comb": "Confederacy", "k": "4", "t": "20", "w": "16"}], "coords": {"lat": 37.8197, "lon": -94.4862}, "startDate": "9/2/1861", "title": "Battle of Dry Wood Creek", "victor": 2}, {"casualties": [{"c": "", "comb": "Union", "k": "2", "t": "9", "w": "7"}, {"c": "34", "comb": "Confederacy", "k": "5", "t": "46", "w": "7"}], "coords": {"lat": 36.2742, "lon": -76.1421}, "startDate": "2/10/1862", "title": "Battle of Elizabeth City", "victor": 1}, {"casualties": [{"c": "", "comb": "Union", "k": "", "t": "38", "w": ""}, {"c": "", "comb": "Confederacy", "k": "", "t": "54", "w": ""}], "coords": {"lat": 33.930556, "lon": -93.357222}, "endDate": "4/4/1864", "startDate": "4/3/1864", "title": "Battle of Elkin's Ferry", "victor": 1}, {"casualties": [{"c": "", "comb": "Union", "k": "", "t": "194", "w": ""}, {"c": "", "comb": "Confederacy", "k": "", "t": "48", "w": ""}], "coords": {"lat": 37.5002, "lon": -76.8423}, "startDate": "5/7/1862", "title": "Battle of Eltham's Landing", "victor": 4}, {"casualties": [{"c": "", "comb": "Union", "k": "", "t": "642", "w": ""}, {"c": "", "comb": "Confederacy", "k": "", "t": "3000", "w": ""}], "coords": {"lat": 33.752778, "lon": -84.439167}, "startDate": "7/28/1864", "title": "Battle of Ezra Church", "victor": 1}, {"casualties": [{"c": "", "comb": "Union", "k": "", "t": "100", "w": ""}, {"c": "", "comb": "Confederacy", "k": "", "t": "165", "w": ""}], "coords": {"lat": 35.8645, "lon": -83.5096}, "startDate": "1/27/1864", "title": "Battle of Fair Garden", "victor": 1}, {"casualties": [{"c": 208.0, "comb": "Union", "k": "6", "t": "242", "w": "28"}, {"c": "5", "comb": "Confederacy", "k": "8", "t": "34", "w": "21"}], "coords": {"lat": 39.787222, "lon": -77.369444}, "startDate": "7/3/1863", "title": "Battle of Fairfield near Fairfield Gap", "victor": 2}, {"casualties": [{"c": "", "comb": "Union", "k": "", "t": "528", "w": ""}, {"c": "", "comb": "Confederacy", "k": "", "t": "1234", "w": ""}], "coords": {"lat": 38.9838, "lon": -78.3959}, "endDate": "9/22/1864", "startDate": "9/21/1864", "title": "Battle of Fisher's Hill", "victor": 1}, {"casualties": [{"c": "", "comb": "Union", "k": "", "t": "830", "w": ""}, {"c": "", "comb": "Confederacy", "k": "", "t": "2950", "w": ""}], "coords": {"lat": 37.139444, "lon": -77.622778}, "startDate": "4/1/1865", "title": "Battle of Five Forks", "victor": 1}, {"casualties": [{"c": "", "comb": "Union", "k": "2", "t": "5", "w": "3"}, {"c": "", "comb": "Confederacy", "k": "20-25", "t": "60-75", "w": "40-50"}], "coords": {"lat": 39.6639, "lon": -78.753}, "startDate": "8/1/1864", "title": "Battle of Folck's Mill", "victor": 4}, {"casualties": [{"comb": "Union"}, {"comb": "Confederacy"}, {"t": 7.0}], "coords": {"lat": 35.1383, "lon": -77.0358}, "endDate": "3/15/1863", "startDate": "3/13/1863", "title": "Battle of Fort Anderson", "victor": 1}, {"casualties": [{"c": "", "comb": "Union", "k": "", "t": "234", "w": ""}, {"c": "", "comb": "Confederacy", "k": "", "t": "450", "w": ""}], "coords": {"lat": 29.7101, "lon": -91.351}, "endDate": "4/13/1863", "startDate": "4/12/1863", "title": "Battle of Fort Bisland", "victor": 1}, {"casualties": [{"c": "", "comb": "Union", "k": "", "t": "629", "w": ""}, {"c": "", "comb": "Confederacy", "k": "", "t": "2900", "w": ""}], "coords": {"lat": 30.742408, "lon": -87.92703900000001}, "endDate": "4/9/1865", "startDate": "4/2/1865", "title": "Battle of Fort Blakely", "victor": 1}, {"casualties": [{"c": "", "comb": "Union", "k": "", "t": "16", "w": ""}, {"c": "", "comb": "Confederacy", "k": "", "t": "", "w": ""}], "coords": {"lat": 28.00062, "lon": -82.47368}, "endDate": "10/18/1863", "startDate": "10/16/1863", "title": "Battle of Fort Brooke", "victor": 1}, {"casualties": [{"c": "", "comb": "Union", "k": "1", "t": "2", "w": "1"}, {"c": "", "comb": "Indians", "k": "2", "t": "2", "w": ""}], "coords": {"lat": 31.6575, "lon": -110.706944}, "startDate": "2/17/1865", "title": "Battle of Fort Buchanan", "victor": 3}, {"casualties": [{"c": "", "comb": "Union", "k": "", "t": "184", "w": ""}, {"c": "", "comb": "Confederacy", "k": "", "t": "1500", "w": ""}], "coords": {"lat": 37.6194, "lon": -90.6415}, "startDate": "9/27/1864", "title": "Battle of Fort Davidson", "victor": 1}, {"casualties": [{"c": 2.0, "comb": "Union", "k": "48", "t": "50", "w": ""}, {"c": "317", "comb": "Confederacy", "k": "2", "t": "324", "w": "5"}], "coords": {"lat": 31.1838, "lon": -92.05436}, "startDate": "3/14/1864", "title": "Battle of Fort De Russy", "victor": 1}, {"casualties": [{"c": 208.0, "comb": "Union", "k": "507", "t": "2691", "w": "1976"}, {"c": "12392", "comb": "Confederacy", "k": "327", "t": "13846", "w": "1127"}], "coords": {"lat": 36.493809999999996, "lon": -87.85601}, "endDate": "2/16/1862", "startDate": "2/11/1862", "title": "Battle of Fort Donelson", "victor": 1}, {"casualties": [{"c": "", "comb": "Union", "k": "", "t": "40", "w": ""}, {"c": "", "comb": "Confederacy", "k": "", "t": "79", "w": ""}], "coords": {"lat": 36.5186, "lon": -88.0391}, "startDate": "2/6/1862", "title": "Battle of Fort Henry", "victor": 1}, {"casualties": [{"c": "", "comb": "Union", "k": "", "t": "134", "w": ""}, {"c": "", "comb": "Confederacy", "k": "", "t": "71", "w": ""}], "coords": {"lat": 31.8888, "lon": -81.1941}, "startDate": "12/13/1864", "title": "Battle of Fort McAllister", "victor": 1}, {"casualties": [{"c": "", "comb": "Union", "k": "1", "t": "4", "w": "3"}, {"c": "", "comb": "Confederacy", "k": "", "t": "1", "w": "1"}], "coords": {"lat": 26.631666999999997, "lon": -81.857222}, "startDate": "2/20/1865", "title": "Battle of Fort Myers", "victor": 1}, {"casualties": [{"c": "", "comb": "Union", "k": "182", "t": "182", "w": ""}, {"c": "", "comb": "Confederacy", "k": "14", "t": "100", "w": "86"}], "coords": {"lat": 35.6324, "lon": -89.8487}, "startDate": "4/12/1864", "title": "Battle of Fort Pillow", "victor": 2}, {"casualties": [{"c": "", "comb": "Union", "k": "1", "t": "1", "w": ""}, {"c": "363", "comb": "Confederacy", "k": "", "t": "363", "w": ""}], "coords": {"lat": 32.02729, "lon": -80.89095999999999}, "endDate": "4/11/1862", "startDate": "4/10/1862", "title": "Battle of Fort Pulaski", "victor": 1}, {"casualties": [{"c": "", "comb": "Union", "k": "4", "t": "18", "w": "14"}, {"c": "", "comb": "Indians", "k": "2", "t": "7", "w": 5.0}], "coords": {"lat": 44.4511, "lon": -94.7308}, "endDate": "8/22/1862", "startDate": "8/20/1862", "title": "Battle of Fort Ridgely", "victor": 1}, {"casualties": [{"c": "", "comb": "Union", "k": "8", "t": "13", "w": "5"}, {"c": "226", "comb": "Confederacy", "k": "129", "t": "813", "w": "458"}], "coords": {"lat": 35.9589, "lon": -83.9338}, "startDate": "11/29/1863", "title": "Battle of Fort Sanders", "victor": 1}, {"casualties": [{"c": 11.0, "comb": "Union", "k": "4", "t": "21", "w": "6"}, {"c": "", "comb": "Confederacy", "k": "2", "t": "6", "w": "4"}], "coords": {"lat": 35.368611, "lon": -94.398611}, "startDate": "7/31/1864", "title": "Battle of Fort Smith", "victor": 1}, {"casualties": [{"c": 522.0, "comb": "Union", "k": "72", "t": "1044", "w": "450"}, {"c": "1000", "comb": "Confederacy", "k": "600", "t": "4000", "w": "2400"}], "coords": {"lat": 37.226, "lon": -77.37100000000001}, "startDate": "3/25/1865", "title": "Battle of Fort Stedman", "victor": 1}, {"casualties": [{"c": "", "comb": "Union", "k": "", "t": "373", "w": ""}, {"c": "", "comb": "Confederacy", "k": "", "t": "400-500", "w": ""}], "coords": {"lat": 38.9641, "lon": -77.0288}, "endDate": "7/12/1864", "startDate": "7/11/1864", "title": "Battle of Fort Stevens", "victor": 1}, {"casualties": [{"c": "", "comb": "Union", "k": "", "t": "0", "w": ""}, {"c": "", "comb": "Confederacy", "k": "", "t": "0", "w": ""}], "coords": {"lat": 32.75241, "lon": -79.87496}, "endDate": "4/14/1861", "startDate": "4/12/1861", "title": "Battle of Fort Sumter", "victor": 2}, {"casualties": [{"c": "", "comb": "Union", "k": "", "t": "229", "w": ""}, {"c": "", "comb": "Confederacy", "k": "", "t": "782", "w": ""}], "coords": {"lat": 29.3573, "lon": -89.4594}, "endDate": "4/28/1862", "startDate": "4/18/1862", "title": "Battle of Forts Jackson and St. Philip", "victor": 1}, {"casualties": [{"c": 1104.0, "comb": "Union", "k": "189", "t": "2326", "w": "1033"}, {"c": "702", "comb": "Confederacy", "k": "1750", "t": "6252", "w": "3800"}], "coords": {"lat": 35.9174, "lon": -86.8733}, "startDate": "11/30/1864", "title": "Battle of Franklin", "victor": 1}, {"casualties": [{"c": "", "comb": "Union", "k": "", "t": "100", "w": ""}, {"c": "", "comb": "Confederacy", "k": "", "t": "137", "w": ""}], "coords": {"lat": 35.914, "lon": -86.86399999999999}, "startDate": "4/10/1863", "title": "Battle of Franklin (1863)", "victor": 1}, {"casualties": [{"c": 1769.0, "comb": "Union", "k": "1284", "t": "12653", "w": "9600"}, {"c": "", "comb": "Confederacy", "k": "408", "t": "4201", "w": "3743"}], "coords": {"lat": 38.2995, "lon": -77.4705}, "endDate": "12/15/1862", "startDate": "12/11/1862", "title": "Battle of Fredericksburg", "victor": 2}, {"casualties": [{"c": "", "comb": "Union", "k": "", "t": "", "w": ""}, {"c": "80", "comb": "Confederacy", "k": "25", "t": "145", "w": "40"}], "coords": {"lat": 37.5434, "lon": -90.2969}, "endDate": "10/21/1861", "startDate": "10/17/1861", "title": "Battle of Fredericktown", "victor": 1}, {"casualties": [{"c": 691.0, "comb": "Union", "k": "83", "t": "773", "w": ""}, {"c": "", "comb": "Confederacy", "k": "", "t": "36", "w": ""}], "coords": {"lat": 38.936, "lon": -78.1923}, "startDate": "5/23/1862", "title": "Battle of Front Royal", "victor": 2}, {"casualties": [{"c": 2836.0, "comb": "Union", "k": "894", "t": "6837", "w": "3107"}, {"c": "108", "comb": "Confederacy", "k": "1483", "t": "7993", "w": "6402"}], "coords": {"lat": 37.579, "lon": -77.2872}, "startDate": "6/27/1862", "title": "Battle of Gaines's Mill", "victor": 2}, {"casualties": [{"c": 86.0, "comb": "Union", "k": "28", "t": "114", "w": ""}, {"c": "", "comb": "Confederacy", "k": "3", "t": "8", "w": "5"}], "coords": {"lat": 29.651994000000002, "lon": -82.325067}, "startDate": "8/17/1864", "title": "Battle of Gainesville", "victor": 2}, {"casualties": [{"c": 400.0, "comb": "Union", "k": "", "t": "400", "w": ""}, {"c": "", "comb": "Confederacy", "k": "26", "t": "143", "w": "117"}], "coords": {"lat": 29.339536, "lon": -94.767036}, "startDate": "1/1/1863", "title": "Battle of Galveston", "victor": 2}, {"casualties": [{"c": "", "comb": "Union", "k": "", "t": "0", "w": ""}, {"c": "", "comb": "Confederacy", "k": "", "t": "0", "w": ""}], "coords": {"lat": 29.3397, "lon": -94.774}, "startDate": "10/4/1862", "title": "Battle of Galveston Harbor", "victor": 1}, {"casualties": [{"c": "", "comb": "Union", "k": "", "t": "189", "w": ""}, {"c": "", "comb": "Confederacy", "k": "", "t": "438", "w": ""}], "coords": {"lat": 37.5532, "lon": -77.3145}, "endDate": "6/28/1862", "startDate": "6/27/1862", "title": "Battle of Garnett's & Golding's Farm", "victor": 4}, {"casualties": [{"c": "", "comb": "Union", "k": "", "t": "86", "w": ""}, {"c": "", "comb": "Confederacy", "k": "", "t": "229", "w": ""}], "coords": {"lat": 29.8604, "lon": -90.9811}, "startDate": "10/27/1862", "title": "Battle of Georgia Landing", "victor": 1}, {"casualties": [{"c": 5365.0, "comb": "Union", "k": "3155", "t": "23049", "w": "14529"}, {"c": "5830", "comb": "Confederacy", "k": "4708", "t": "23231", "w": "12693"}], "coords": {"lat": 39.811, "lon": -77.225}, "endDate": "7/3/1863", "startDate": "7/1/1863", "title": "Battle of Gettysburg", "victor": 1}, {"casualties": [{"c": "", "comb": "Union", "k": "", "t": "50-400", "w": ""}, {"c": "", "comb": "Confederacy", "k": "", "t": "50", "w": ""}], "coords": {"lat": 39.226, "lon": -92.846}, "startDate": "10/15/1864", "title": "Battle of Glasgow", "victor": 2}, {"casualties": [{"c": 1804.0, "comb": "Union", "k": "297", "t": "3797", "w": "1696"}, {"c": "221", "comb": "Confederacy", "k": "638", "t": "3673", "w": "2814"}], "coords": {"lat": 37.437909999999995, "lon": -77.23812}, "startDate": "6/30/1862", "title": "Battle of Glendale", "victor": 4}, {"casualties": [{"c": 2897.0, "comb": "Union", "k": "251", "t": "4296", "w": "1148"}, {"c": "419", "comb": "Confederacy", "k": "211", "t": "1620", "w": "990"}], "coords": {"lat": 37.1747, "lon": -77.4203}, "endDate": "8/21/1864", "startDate": "8/18/1864", "title": "Battle of Globe Tavern", "victor": 1}, {"casualties": [{"c": 3.0, "comb": "Union", "k": "51", "t": "147", "w": "78"}, {"c": "92", "comb": "Confederacy", "k": "50", "t": "222", "w": "80"}], "coords": {"lat": 35.572183, "lon": -105.75390800000001}, "endDate": "3/28/1862", "startDate": "3/26/1862", "title": "Battle of Glorieta Pass", "victor": 1}, {"casualties": [{"c": "", "comb": "Union", "k": "", "t": "0", "w": ""}, {"c": "", "comb": "Confederacy", "k": "", "t": "0", "w": ""}], "coords": {"lat": 37.27, "lon": -76.498611}, "startDate": "5/7/1861", "title": "Battle of Gloucester Point", "victor": 4}, {"casualties": [{"comb": "Union"}, {"comb": "Confederacy"}, {"t": 220.0}], "coords": {"lat": 35.3396, "lon": -78.0288}, "startDate": "12/17/1862", "title": "Battle of Goldsborough Bridge", "victor": 1}, {"casualties": [{"c": "", "comb": "Union", "k": "", "t": "120", "w": ""}, {"c": "", "comb": "Confederacy", "k": "", "t": "", "w": ""}], "coords": {"lat": 32.7432, "lon": -91.1791}, "endDate": "6/30/1863", "startDate": "6/29/1863", "title": "Battle of Goodrich's Landing", "victor": 4}, {"casualties": [{"c": "", "comb": "Union", "k": "18", "t": "75", "w": "57"}, {"c": "", "comb": "Confederacy", "k": "3", "t": "22", "w": "19"}], "coords": {"lat": 32.029167, "lon": -91.056111}, "startDate": "4/29/1863", "title": "Battle of Grand Gulf", "victor": 2}, {"casualties": [{"c": "", "comb": "Union", "k": "8", "t": "43", "w": "35"}, {"c": "", "comb": "Confederacy", "k": "6", "t": "39", "w": "33"}], "coords": {"lat": 38.534167, "lon": -79.767778}, "startDate": "10/3/1861", "title": "Battle of Greenbrier River", "victor": 4}, {"casualties": [{"c": 14.0, "comb": "Union", "k": "30", "t": "44", "w": ""}, {"c": "3", "comb": "Confederacy", "k": "3", "t": "18", "w": "12"}], "coords": {"lat": 32.698, "lon": -79.983}, "startDate": "7/16/1863", "title": "Battle of Grimball's Landing", "victor": 4}, {"casualties": [{"c": 2.0, "comb": "Union", "k": "13", "t": "94", "w": "79"}, {"c": "600", "comb": "Confederacy", "k": "51", "t": "1123", "w": "472"}], "coords": {"lat": 32.866756, "lon": -83.469486}, "startDate": "11/22/1864", "title": "Battle of Griswoldville", "victor": 1}, {"casualties": [{"c": "", "comb": "Union", "k": "", "t": "71", "w": ""}, {"c": "", "comb": "Confederacy", "k": "", "t": "480", "w": ""}], "coords": {"lat": 38.953056, "lon": -78.20013900000001}, "startDate": "8/16/1864", "title": "Battle of Guard Hill", "victor": 4}, {"casualties": [{"c": "", "comb": "Union", "k": "261", "t": "369", "w": "108"}, {"c": "", "comb": "Confederacy", "k": "78", "t": "95", "w": "17"}], "coords": {"lat": 36.983333, "lon": -76.319722}, "endDate": "3/9/1862", "startDate": "3/8/1862", "title": "Battle of Hampton Roads", "victor": 4}, {"casualties": [{"comb": "Union"}, {"comb": "Confederacy"}, {"t": 25.0}], "coords": {"lat": 39.6957, "lon": -78.17699999999999}, "startDate": "1/5/1862", "title": "Battle of Hancock", "victor": 4}, {"casualties": [{"c": "", "comb": "Union", "k": "", "t": "215", "w": ""}, {"c": "", "comb": "Confederacy", "k": "", "t": "117", "w": ""}], "coords": {"lat": 39.800990000000006, "lon": -76.98246999999999}, "startDate": "6/30/1863", "title": "Battle of Hanover", "victor": 4}, {"casualties": [{"c": "", "comb": "Union", "k": "", "t": "355-397", "w": ""}, {"c": "", "comb": "Confederacy", "k": "", "t": "930", "w": ""}], "coords": {"lat": 37.7222, "lon": -77.3763}, "startDate": "5/27/1862", "title": "Battle of Hanover Court House", "victor": 1}, {"casualties": [{"c": 12419.0, "comb": "Union", "k": "44", "t": "12636", "w": "173"}, {"c": "", "comb": "Confederacy", "k": "39", "t": "286", "w": "247"}], "coords": {"lat": 39.3228, "lon": -77.7302}, "endDate": "9/15/1862", "startDate": "9/12/1862", "title": "Battle of Harpers Ferry", "victor": 2}, {"casualties": [{"c": "", "comb": "Union", "k": "", "t": "2096", "w": ""}, {"c": "", "comb": "Confederacy", "k": "", "t": "139", "w": ""}], "coords": {"lat": 36.3777, "lon": -86.1743}, "startDate": "12/7/1862", "title": "Battle of Hartsville", "victor": 2}, {"casualties": [{"c": 7.0, "comb": "Union", "k": "7", "t": "78", "w": "64"}, {"c": "3", "comb": "Confederacy", "k": "12", "t": "111", "w": "96"}], "coords": {"lat": 37.2511, "lon": -92.5111}, "endDate": "1/11/1863", "startDate": "1/9/1863", "title": "Battle of Hartville", "victor": 4}, {"casualties": [{"c": 187.0, "comb": "Union", "k": "171", "t": "1539", "w": "1181"}, {"c": "", "comb": "Confederacy", "k": "", "t": "1161", "w": ""}], "coords": {"lat": 37.1305, "lon": -77.4853}, "endDate": "2/7/1865", "startDate": "2/5/1865", "title": "Battle of Hatcher's Run", "victor": 1}, {"casualties": [{"c": "", "comb": "Union", "k": "", "t": "500", "w": ""}, {"c": "", "comb": "Confederacy", "k": "", "t": "400", "w": ""}], "coords": {"lat": 35.030833, "lon": -88.795556}, "startDate": "10/5/1862", "title": "Battle of Hatchie Bridge", "victor": 1}, {"casualties": [{"c": "", "comb": "Union", "k": "1", "t": "3", "w": "2"}, {"c": "691", "comb": "Confederacy", "k": "4", "t": "715", "w": "20"}], "coords": {"lat": 35.1864, "lon": -75.7645}, "endDate": "8/29/1861", "startDate": "8/28/1861", "title": "Battle of Hatteras Inlet Batteries", "victor": 1}, {"casualties": [{"c": "", "comb": "Union", "k": "", "t": "365", "w": ""}, {"c": "", "comb": "Confederacy", "k": "", "t": "378", "w": ""}], "coords": {"lat": 37.676, "lon": -77.3118}, "startDate": "5/28/1864", "title": "Battle of Haw's Shop", "victor": 4}, {"casualties": [{"c": 36.0, "comb": "Union", "k": "57", "t": "239", "w": "146"}, {"c": "786", "comb": "Confederacy", "k": "169", "t": "1614", "w": "659"}], "coords": {"lat": 34.518056, "lon": -90.589444}, "startDate": "7/4/1863", "title": "Battle of Helena", "victor": 1}, {"casualties": [{"c": 800.0, "comb": "Union", "k": "", "t": "847", "w": ""}, {"c": "", "comb": "Confederacy", "k": "", "t": "100", "w": ""}], "coords": {"lat": 37.3122, "lon": -78.3177}, "endDate": "4/7/1865", "startDate": "4/6/1865", "title": "Battle of High Bridge", "victor": 4}, {"casualties": [{"c": "", "comb": "Union", "k": "6", "t": "17", "w": "11"}, {"c": "130", "comb": "Confederacy", "k": "1", "t": "143", "w": "11"}], "coords": {"lat": 36.7149, "lon": -76.5829}, "endDate": "5/4/1863", "startDate": "4/11/1863", "title": "Battle of Hill's Point", "victor": 4}, {"casualties": [{"c": "", "comb": "Union", "k": "", "t": "23", "w": ""}, {"c": "", "comb": "Confederacy", "k": "", "t": "91", "w": ""}], "coords": {"lat": 39.545, "lon": -77.9063}, "startDate": "7/2/1861", "title": "Battle of Hoke's Run", "victor": 1}, {"casualties": [{"c": 28.0, "comb": "Union", "k": "89", "t": "746", "w": "629"}, {"c": "", "comb": "Confederacy", "k": "8", "t": "47", "w": "39"}], "coords": {"lat": 32.486, "lon": -80.9343}, "startDate": "11/30/1864", "title": "Battle of Honey Hill", "victor": 2}, {"casualties": [{"c": "", "comb": "Union", "k": "", "t": "79-200", "w": ""}, {"c": "", "comb": "Confederacy", "k": "", "t": "180-500", "w": ""}], "coords": {"lat": 35.55618, "lon": -95.4699}, "startDate": "7/17/1863", "title": "Battle of Honey Springs", "victor": 1}, {"casualties": [{"c": "", "comb": "Union", "k": "", "t": "583", "w": ""}, {"c": "", "comb": "Confederacy", "k": "", "t": "", "w": ""}], "coords": {"lat": 35.6305, "lon": -86.2454}, "endDate": "6/26/1863", "startDate": "6/24/1863", "title": "Battle of Hoover's Gap", "victor": 1}, {"casualties": [{"c": "", "comb": "Union", "k": "", "t": "", "w": ""}, {"c": "", "comb": "Confederacy", "k": "", "t": "", "w": ""}], "coords": {"lat": 39.88255, "lon": -77.161783}, "startDate": "7/2/1863", "title": "Battle of Hunterstown", "victor": 2}, {"casualties": [{"c": "", "comb": "Union", "k": "", "t": "353", "w": ""}, {"c": "", "comb": "Confederacy", "k": "", "t": "", "w": ""}], "coords": {"lat": 29.8116, "lon": -91.4615}, "startDate": "4/14/1863", "title": "Battle of Irish Bend", "victor": 1}, {"casualties": [{"c": 5.0, "comb": "Union", "k": "23", "t": "78", "w": "50"}, {"c": "", "comb": "Confederacy", "k": "30", "t": "30", "w": ""}], "coords": {"lat": 36.4588, "lon": -89.4708}, "endDate": "4/8/1862", "startDate": "2/28/1862", "title": "Battle of Island No. 10", "victor": 1}, {"casualties": [{"c": 40.0, "comb": "Union", "k": "144", "t": "790", "w": "598"}, {"c": "561", "comb": "Confederacy", "k": "263", "t": "1516", "w": "692"}], "coords": {"lat": 34.7936, "lon": -88.2101}, "startDate": "9/19/1862", "title": "Battle of Iuka", "victor": 1}, {"casualties": [{"c": "", "comb": "Union", "k": "6", "t": "30", "w": "24"}, {"c": "50", "comb": "Confederacy", "k": "10", "t": "75", "w": "15"}], "coords": {"lat": 37.5956, "lon": -82.6733}, "startDate": "11/8/1861", "title": "Battle of Ivy Mountain", "victor": 1}, {"casualties": [{"c": "", "comb": "Union", "k": "", "t": "286", "w": ""}, {"c": "", "comb": "Confederacy", "k": "", "t": "850", "w": ""}], "coords": {"lat": 32.324, "lon": -90.236}, "startDate": "5/14/1863", "title": "Battle of Jackson", "victor": 1}, {"casualties": [{"c": "", "comb": "Union", "k": "", "t": "6", "w": ""}, {"c": "", "comb": "Confederacy", "k": "", "t": "", "w": ""}], "coords": {"lat": 35.632, "lon": -88.7635}, "startDate": "12/19/1862", "title": "Battle of Jackson, Tennessee", "victor": 2}, {"casualties": [{"c": "", "comb": "Union", "k": "", "t": "700", "w": ""}, {"c": "", "comb": "Confederacy", "k": "", "t": "1000", "w": ""}], "coords": {"lat": 34.211889, "lon": -92.54799999999999}, "startDate": "4/30/1864", "title": "Battle of Jenkins' Ferry", "victor": 1}, {"casualties": [{"c": 1742.0, "comb": "Union", "k": "650", "t": "2392", "w": ""}, {"c": "", "comb": "Confederacy", "k": "", "t": "572", "w": ""}], "coords": {"lat": 37.1844, "lon": -77.3767}, "endDate": "6/23/1864", "startDate": "6/21/1864", "title": "Battle of Jerusalem Plank Road", "victor": 4}, {"casualties": [{"c": 150.0, "comb": "Union", "k": "", "t": "150", "w": ""}, {"c": "", "comb": "Confederacy", "k": "2", "t": "11", "w": "9"}], "coords": {"lat": 36.0708, "lon": -87.9757}, "endDate": "11/5/1864", "startDate": "11/4/1864", "title": "Battle of Johnsonville", "victor": 2}, {"casualties": [{"c": "", "comb": "Union", "k": "", "t": "1149", "w": ""}, {"c": "", "comb": "Confederacy", "k": "", "t": "2000-2700", "w": ""}], "coords": {"lat": 33.5307, "lon": -84.3621}, "endDate": "9/1/1864", "startDate": "8/31/1864", "title": "Battle of Jonesborough", "victor": 1}, {"casualties": [{"c": 22.0, "comb": "Union", "k": "6", "t": "78", "w": "50"}, {"c": "34", "comb": "Confederacy", "k": "11", "t": "133", "w": "88"}], "coords": {"lat": 38.476921000000004, "lon": -77.77988}, "startDate": "3/17/1863", "title": "Battle of Kelly's Ford", "victor": 4}, {"casualties": [{"c": "", "comb": "Union", "k": "", "t": "3000", "w": ""}, {"c": "", "comb": "Confederacy", "k": "", "t": "1000", "w": ""}], "coords": {"lat": 33.9363, "lon": -84.5979}, "startDate": "6/27/1864", "title": "Battle of Kennesaw Mountain", "victor": 2}, {"casualties": [{"c": 38.0, "comb": "Union", "k": "15", "t": "73", "w": "20"}, {"c": "", "comb": "Confederacy", "k": "", "t": "40", "w": ""}], "coords": {"lat": 38.235, "lon": -80.935}, "startDate": "8/26/1861", "title": "Battle of Kessler's Cross Lanes", "victor": 2}, {"casualties": [{"c": "", "comb": "Union", "k": "5", "t": "15", "w": "10"}, {"c": "", "comb": "Indians", "k": "31-150", "t": "31-150", "w": ""}], "coords": {"lat": 47.4252, "lon": -102.9184}, "endDate": "7/29/1864", "startDate": "7/28/1864", "title": "Battle of Killdeer Mountain", "victor": 1}, {"casualties": [{"c": "", "comb": "Union", "k": "", "t": "260", "w": ""}, {"c": "", "comb": "Confederacy", "k": "", "t": "525", "w": ""}], "coords": {"lat": 35.2441, "lon": -77.5847}, "startDate": "12/14/1862", "title": "Battle of Kinston", "victor": 1}, {"casualties": [{"c": "", "comb": "Union", "k": "", "t": "88", "w": ""}, {"c": "", "comb": "Confederacy", "k": "", "t": "368", "w": ""}], "coords": {"lat": 40.19, "lon": -92.6}, "startDate": "8/6/1862", "title": "Battle of Kirksville", "victor": 1}, {"casualties": [{"c": "", "comb": "Union", "k": "", "t": "430", "w": ""}, {"c": "", "comb": "Confederacy", "k": "", "t": "33", "w": ""}], "coords": {"lat": 30.0865, "lon": -91.0295}, "endDate": "7/13/1863", "startDate": "7/12/1863", "title": "Battle of Kock's Plantation", "victor": 2}, {"casualties": [{"c": "", "comb": "Union", "k": "", "t": "350", "w": ""}, {"c": "", "comb": "Confederacy", "k": "", "t": "1500", "w": ""}], "coords": {"lat": 33.91037, "lon": -84.59714}, "startDate": "6/22/1864", "title": "Battle of Kolb's Farm", "victor": 1}, {"casualties": [{"c": "", "comb": "Union", "k": "", "t": "48", "w": ""}, {"c": "", "comb": "Confederacy", "k": "", "t": "219", "w": ""}], "coords": {"lat": 29.7668, "lon": -90.7646}, "endDate": "6/21/1863", "startDate": "6/20/1863", "title": "Battle of LaFourche Crossing", "victor": 1}, {"casualties": [{"c": "", "comb": "Union", "k": "", "t": "1", "w": "1"}, {"c": "", "comb": "Confederacy", "k": "2", "t": "7", "w": "5"}], "coords": {"lat": 32.809844, "lon": -91.193392}, "startDate": "6/9/1863", "title": "Battle of Lake Providence", "victor": 1}, {"casualties": [{"c": "", "comb": "Union", "k": "", "t": "2", "w": ""}, {"c": "", "comb": "Confederacy", "k": "", "t": "0", "w": ""}], "coords": {"lat": 27.524444, "lon": -99.49055600000001}, "startDate": "3/18/1864", "title": "Battle of Laredo", "victor": 2}, {"casualties": [{"c": "", "comb": "Union", "k": "", "t": "381", "w": ""}, {"c": "", "comb": "Confederacy", "k": "", "t": "371", "w": ""}], "coords": {"lat": 37.128333000000005, "lon": -77.527778}, "startDate": "3/29/1865", "title": "Battle of Lewis's Farm", "victor": 1}, {"casualties": [{"c": "", "comb": "Union", "k": "", "t": "56", "w": ""}, {"c": "", "comb": "Confederacy", "k": "", "t": "70", "w": ""}], "coords": {"lat": 39.1931, "lon": -94.3842}, "startDate": "9/17/1861", "title": "Battle of Liberty", "victor": 2}, {"casualties": [{"c": "", "comb": "Union", "k": "", "t": "", "w": ""}, {"c": "", "comb": "Confederacy", "k": "", "t": "", "w": ""}], "coords": {"lat": 39.1369, "lon": -94.3139}, "startDate": "10/21/1864", "title": "Battle of Little Blue River", "victor": 2}, {"casualties": [{"c": "", "comb": "Union", "k": "", "t": "160", "w": ""}, {"c": "", "comb": "Confederacy", "k": "", "t": "118", "w": ""}], "coords": {"lat": 38.870556, "lon": -94.188056}, "endDate": "8/16/1862", "startDate": "8/15/1862", "title": "Battle of Lone Jack", "victor": 2}, {"casualties": [{"c": "", "comb": "Union", "k": "", "t": "237", "w": ""}, {"c": "", "comb": "Confederacy", "k": "", "t": "240", "w": ""}], "coords": {"lat": 33.4441, "lon": -84.3084}, "startDate": "8/20/1864", "title": "Battle of Lovejoy's Station", "victor": 2}, {"casualties": [{"c": "", "comb": "Union", "k": "", "t": "75", "w": ""}, {"c": "", "comb": "Confederacy", "k": "", "t": "6", "w": ""}], "coords": {"lat": 37.3845, "lon": -79.1832}, "endDate": "6/18/1864", "startDate": "6/17/1864", "title": "Battle of Lynchburg", "victor": 2}, {"casualties": [{"c": "", "comb": "Union", "k": "", "t": "3000", "w": ""}, {"c": "", "comb": "Confederacy", "k": "", "t": "5650", "w": ""}], "coords": {"lat": 37.4124, "lon": -77.2509}, "startDate": "7/1/1862", "title": "Battle of Malvern Hill", "victor": 1}, {"casualties": [{"comb": "Union"}, {"comb": "Confederacy"}, {"t": 440.0}], "coords": {"lat": 38.914, "lon": -78.11399999999999}, "startDate": "7/23/1863", "title": "Battle of Manassas Gap", "victor": 4}, {"casualties": [{"c": 1423.0, "comb": "Union", "k": "694", "t": "2117", "w": ""}, {"c": "", "comb": "Confederacy", "k": "1000", "t": "1000", "w": ""}], "coords": {"lat": 32.0121, "lon": -93.6652}, "startDate": "4/8/1864", "title": "Battle of Mansfield", "victor": 1}, {"casualties": [{"c": "", "comb": "Union", "k": "", "t": "", "w": ""}, {"c": "", "comb": "Confederacy", "k": "", "t": "", "w": ""}], "coords": {"lat": 31.055, "lon": -92.04777800000001}, "startDate": "5/16/1864", "title": "Battle of Mansura", "victor": 1}, {"casualties": [{"c": 10.0, "comb": "Union", "k": "8", "t": "37", "w": "19"}, {"c": "41", "comb": "Confederacy", "k": "10", "t": "67", "w": "16"}], "coords": {"lat": 30.776389, "lon": -85.238056}, "startDate": "9/27/1864", "title": "Battle of Marianna", "victor": 1}, {"casualties": [{"c": "", "comb": "Union", "k": "", "t": "", "w": ""}, {"c": "", "comb": "Confederacy", "k": "", "t": "", "w": ""}], "coords": {"lat": 33.9531, "lon": -84.5499}, "endDate": "7/3/1864", "startDate": "6/9/1864", "title": "Battle of Marietta", "victor": 1}, {"casualties": [{"c": "", "comb": "Union", "k": "89", "t": "144", "w": "55"}, {"c": "", "comb": "Confederacy", "k": "91", "t": "120", "w": "29"}], "coords": {"lat": 36.852, "lon": -81.4873}, "endDate": "12/18/1864", "startDate": "12/17/1864", "title": "Battle of Marion", "victor": 1}, {"casualties": [{"c": "", "comb": "Union", "k": "", "t": "1500", "w": ""}, {"c": "", "comb": "Confederacy", "k": "", "t": "293", "w": ""}], "coords": {"lat": 33.781028000000006, "lon": -92.256917}, "startDate": "4/25/1864", "title": "Battle of Marks' Mills", "victor": 2}, {"casualties": [{"c": "", "comb": "Union", "k": "", "t": "", "w": ""}, {"c": "", "comb": "Confederacy", "k": "", "t": "", "w": ""}], "coords": {"lat": 37.8717, "lon": -94.6153}, "startDate": "10/25/1864", "title": "Battle of Marmiton River", "victor": 1}, {"casualties": [{"c": "", "comb": "Union", "k": "1", "t": "5", "w": "4"}, {"c": "", "comb": "Confederacy", "k": "", "t": "0", "w": ""}], "coords": {"lat": 38.400278, "lon": -77.041944}, "startDate": "6/27/1861", "title": "Battle of Mathias Point", "victor": 2}, {"casualties": [{"c": 5.0, "comb": "Union", "k": "34", "t": "259", "w": "220"}, {"c": "4", "comb": "Confederacy", "k": "116", "t": "420", "w": "300"}], "coords": {"lat": 38.3247, "lon": -79.4754}, "startDate": "5/8/1862", "title": "Battle of McDowell", "victor": 2}, {"casualties": [{"c": "", "comb": "Union", "k": "", "t": "0", "w": ""}, {"c": "", "comb": "Confederacy", "k": "49", "t": "49", "w": ""}], "coords": {"lat": 34.319976000000004, "lon": -96.30814000000001}, "startDate": "2/13/1864", "title": "Battle of Middle Boggy", "victor": 1}, {"casualties": [{"c": "", "comb": "Union", "k": "", "t": "27", "w": ""}, {"c": "", "comb": "Confederacy", "k": "", "t": "65", "w": ""}], "coords": {"lat": 37.6507, "lon": -82.8147}, "startDate": "1/10/1862", "title": "Battle of Middle Creek", "victor": 1}, {"casualties": [{"c": "", "comb": "Union", "k": "", "t": "349", "w": ""}, {"c": "", "comb": "Confederacy", "k": "", "t": "40", "w": ""}], "coords": {"lat": 38.96785, "lon": -77.75973}, "endDate": "6/19/1863", "startDate": "6/17/1863", "title": "Battle of Middleburg", "victor": 4}, {"casualties": [{"c": "", "comb": "Union", "k": "39", "t": "246", "w": "207"}, {"c": "", "comb": "Confederacy", "k": "125", "t": "529", "w": "404"}], "coords": {"lat": 37.0562, "lon": -84.7383}, "startDate": "1/19/1862", "title": "Battle of Mill Springs", "victor": 1}, {"casualties": [{"c": "", "comb": "Union", "k": "", "t": "652", "w": ""}, {"c": "", "comb": "Confederacy", "k": "", "t": "185", "w": ""}], "coords": {"lat": 32.44, "lon": -91.1}, "startDate": "6/7/1863", "title": "Battle of Milliken's Bend", "victor": 1}, {"casualties": [{"c": "", "comb": "Union", "k": "", "t": "100", "w": ""}, {"c": "", "comb": "Confederacy", "k": "", "t": "1200", "w": ""}], "coords": {"lat": 38.141037, "lon": -94.72463}, "startDate": "10/25/1864", "title": "Battle of Mine Creek", "victor": 1}, {"casualties": [{"c": "", "comb": "Union", "k": "", "t": "1272", "w": ""}, {"c": "", "comb": "Confederacy", "k": "", "t": "680", "w": ""}], "coords": {"lat": 38.3379, "lon": -77.8187}, "endDate": "12/2/1863", "startDate": "11/27/1863", "title": "Battle of Mine Run", "victor": 4}, {"casualties": [{"c": "", "comb": "Union", "k": "151", "t": "328", "w": "177"}, {"c": "1587", "comb": "Confederacy", "k": "13", "t": "1622", "w": "22"}], "coords": {"lat": 30.240976, "lon": -88.05301700000001}, "endDate": "8/23/1864", "startDate": "8/2/1864", "title": "Battle of Mobile Bay", "victor": 1}, {"casualties": [{"c": "", "comb": "Union", "k": "", "t": "200", "w": ""}, {"c": "", "comb": "Confederacy", "k": "", "t": "400", "w": ""}], "coords": {"lat": 31.498, "lon": -92.85700000000001}, "startDate": "4/23/1864", "title": "Battle of Monett's Ferry", "victor": 1}, {"casualties": [{"c": "", "comb": "Union", "k": "", "t": "1294", "w": ""}, {"c": "", "comb": "Confederacy", "k": "", "t": "900", "w": ""}], "coords": {"lat": 39.3711, "lon": -77.392}, "startDate": "7/9/1864", "title": "Battle of Monocacy", "victor": 1}, {"casualties": [{"c": "", "comb": "Union", "k": "", "t": "183", "w": ""}, {"c": "", "comb": "Confederacy", "k": "", "t": "86", "w": ""}], "coords": {"lat": 35.1259, "lon": -79.2032}, "startDate": "3/10/1865", "title": "Battle of Monroe's Crossroads", "victor": 4}, {"casualties": [{"c": "", "comb": "Union", "k": "", "t": "42", "w": ""}, {"c": "", "comb": "Confederacy", "k": "", "t": "488", "w": ""}], "coords": {"lat": 39.0941, "lon": -78.9645}, "startDate": "8/7/1864", "title": "Battle of Moorefield", "victor": 1}, {"casualties": [{"c": "", "comb": "Union", "k": "", "t": "", "w": ""}, {"c": "", "comb": "Confederacy", "k": "", "t": "", "w": ""}], "coords": {"lat": 35.8275, "lon": -78.828889}, "endDate": "4/15/1865", "startDate": "4/13/1865", "title": "Battle of Morrisville", "victor": 1}, {"casualties": [{"c": "", "comb": "Union", "k": "", "t": "262", "w": ""}, {"c": "", "comb": "Confederacy", "k": "", "t": "60", "w": ""}], "coords": {"lat": 38.3746, "lon": -77.904}, "endDate": "2/7/1864", "startDate": "2/6/1864", "title": "Battle of Morton's Ford", "victor": 4}, {"casualties": [{"c": "", "comb": "Union", "k": "", "t": "151", "w": ""}, {"c": "", "comb": "Confederacy", "k": "", "t": "", "w": ""}], "coords": {"lat": 36.1444, "lon": -83.4423}, "startDate": "12/29/1863", "title": "Battle of Mossy Creek", "victor": 1}, {"casualties": [{"c": 4.0, "comb": "Union", "k": "3", "t": "70", "w": "63"}, {"c": "60", "comb": "Confederacy", "k": "25", "t": "235", "w": "150"}], "coords": {"lat": 39.06917, "lon": -92.17917}, "startDate": "12/28/1861", "title": "Battle of Mount Zion Church", "victor": 1}, {"casualties": [{"c": "", "comb": "Union", "k": "", "t": "4148", "w": ""}, {"c": "", "comb": "Confederacy", "k": "", "t": "714", "w": ""}], "coords": {"lat": 37.2622, "lon": -85.8901}, "endDate": "9/17/1862", "startDate": "9/14/1862", "title": "Battle of Munfordville", "victor": 2}, {"casualties": [{"c": "", "comb": "Union", "k": "", "t": "95", "w": ""}, {"c": "350", "comb": "Confederacy", "k": "", "t": "365+", "w": "15"}], "coords": {"lat": 37.248889, "lon": -77.72555600000001}, "startDate": "4/3/1865", "title": "Battle of Namozine Church", "victor": 4}, {"casualties": [{"c": 112.0, "comb": "Union", "k": "387", "t": "3061", "w": "2558"}, {"c": "4500", "comb": "Confederacy", "k": "1500", "t": "6000", "w": ""}], "coords": {"lat": 36.0881, "lon": -86.8098}, "endDate": "12/16/1864", "startDate": "12/15/1864", "title": "Battle of Nashville", "victor": 1}, {"casualties": [{"c": 38.0, "comb": "Union", "k": "21", "t": "148", "w": "89"}, {"c": "", "comb": "Confederacy", "k": "3", "t": "26", "w": "23"}], "coords": {"lat": 30.283889000000002, "lon": -84.151944}, "startDate": "3/6/1865", "title": "Battle of Natural Bridge", "victor": 2}, {"casualties": [{"c": 1.0, "comb": "Union", "k": "90", "t": "471", "w": "380"}, {"c": "413", "comb": "Confederacy", "k": "64", "t": "578", "w": "101"}], "coords": {"lat": 35.0428, "lon": -77.0148}, "startDate": "3/14/1862", "title": "Battle of New Bern", "victor": 1}, {"casualties": [{"c": "", "comb": "Union", "k": "", "t": "1665", "w": ""}, {"c": "", "comb": "Confederacy", "k": "", "t": "450", "w": ""}], "coords": {"lat": 33.961, "lon": -84.7875}, "endDate": "5/26/1864", "startDate": "5/25/1864", "title": "Battle of New Hope Church", "victor": 2}, {"casualties": [{"c": "", "comb": "Union", "k": "", "t": "841", "w": ""}, {"c": "", "comb": "Confederacy", "k": "", "t": "531", "w": ""}], "coords": {"lat": 38.65515, "lon": -78.67825}, "startDate": "5/15/1864", "title": "Battle of New Market", "victor": 2}, {"casualties": [{"c": "", "comb": "Union", "k": "", "t": "245", "w": ""}, {"c": "", "comb": "Confederacy", "k": "", "t": "100", "w": ""}], "coords": {"lat": 36.8836, "lon": -94.1845}, "startDate": "9/30/1862", "title": "Battle of Newtonia", "victor": 2}, {"casualties": [{"c": "", "comb": "Union", "k": "", "t": "", "w": ""}, {"c": "", "comb": "Confederacy", "k": "", "t": "", "w": ""}], "coords": {"lat": 36.759679999999996, "lon": -76.5671}, "endDate": "4/15/1863", "startDate": "4/14/1863", "title": "Battle of Norfleet House", "victor": 4}, {"casualties": [{"c": 661.0, "comb": "Union", "k": "591", "t": "3986", "w": "2734"}, {"c": "724", "comb": "Confederacy", "k": "124", "t": "1552", "w": "704"}], "coords": {"lat": 37.8862, "lon": -77.4943}, "endDate": "5/26/1864", "startDate": "5/23/1864", "title": "Battle of North Anna", "victor": 4}, {"casualties": [{"c": 55.0, "comb": "Union", "k": "68", "t": "626", "w": "503"}, {"c": "13", "comb": "Confederacy", "k": "66", "t": "441", "w": "362"}], "coords": {"lat": 37.5154, "lon": -77.3292}, "startDate": "6/25/1862", "title": "Battle of Oak Grove", "victor": 4}, {"casualties": [{"c": "", "comb": "Union", "k": "", "t": "388", "w": ""}, {"c": "", "comb": "Confederacy", "k": "", "t": "144", "w": ""}], "coords": {"lat": 34.0021, "lon": -88.7556}, "startDate": "2/22/1864", "title": "Battle of Okolona", "victor": 2}, {"casualties": [{"c": "", "comb": "Union", "k": "", "t": "90", "w": ""}, {"c": "", "comb": "Confederacy", "k": "", "t": "188", "w": ""}], "coords": {"lat": 37.6444, "lon": -77.2209}, "startDate": "5/30/1864", "title": "Battle of Old Church", "victor": 1}, {"casualties": [{"c": "", "comb": "Union", "k": "", "t": "14", "w": ""}, {"c": "", "comb": "Confederacy", "k": "", "t": "150", "w": ""}], "coords": {"lat": 36.368, "lon": -94.6478}, "startDate": "10/22/1862", "title": "Battle of Old Fort Wayne", "victor": 1}, {"casualties": [{"c": "", "comb": "Union", "k": "", "t": "180", "w": ""}, {"c": "", "comb": "Confederacy", "k": "", "t": "100", "w": ""}], "coords": {"lat": 33.268547, "lon": -91.19270300000001}, "endDate": "6/6/1864", "startDate": "6/5/1864", "title": "Battle of Old River Lake", "victor": 1}, {"casualties": [{"c": 506.0, "comb": "Union", "k": "203", "t": "1861", "w": "1152"}, {"c": "6", "comb": "Confederacy", "k": "93", "t": "946", "w": "847"}], "coords": {"lat": 30.214233, "lon": -82.388589}, "startDate": "2/20/1864", "title": "Battle of Olustee", "victor": 2}, {"casualties": [{"c": "", "comb": "Union", "k": "", "t": "90", "w": ""}, {"c": "", "comb": "Confederacy", "k": "", "t": "50", "w": ""}], "coords": {"lat": 37.0931, "lon": -88.6058}, "startDate": "3/25/1864", "title": "Battle of Paducah", "victor": 2}, {"casualties": [{"c": 101.0, "comb": "Union", "k": "4", "t": "117", "w": "12"}, {"c": "3", "comb": "Confederacy", "k": "", "t": "9", "w": "6"}], "coords": {"lat": 25.94667, "lon": -97.28528}, "endDate": "5/13/1865", "startDate": "5/12/1865", "title": "Battle of Palmito Ranch", "victor": 2}, {"casualties": [{"c": "", "comb": "Union", "k": "", "t": "237", "w": ""}, {"c": "", "comb": "Confederacy", "k": "", "t": "500", "w": ""}], "coords": {"lat": 35.793, "lon": -88.39299999999999}, "startDate": "12/31/1862", "title": "Battle of Parker's Cross Roads", "victor": 2}, {"casualties": [{"c": "", "comb": "Union", "k": "", "t": "1384", "w": ""}, {"c": "", "comb": "Confederacy", "k": "", "t": "2000", "w": ""}], "coords": {"lat": 36.442583, "lon": -94.025972}, "endDate": "3/8/1862", "startDate": "3/6/1862", "title": "Battle of Pea Ridge", "victor": 1}, {"casualties": [{"c": "", "comb": "Union", "k": "", "t": "1900", "w": ""}, {"c": "", "comb": "Confederacy", "k": "", "t": "2500", "w": ""}], "coords": {"lat": 33.8109, "lon": -84.4038}, "startDate": "7/20/1864", "title": "Battle of Peachtree Creek", "victor": 1}, {"casualties": [{"c": "", "comb": "Union", "k": "", "t": "2889", "w": ""}, {"c": "", "comb": "Confederacy", "k": "", "t": "1239", "w": ""}], "coords": {"lat": 37.1705, "lon": -77.4537}, "endDate": "10/2/1864", "startDate": "9/30/1864", "title": "Battle of Peebles's Farm", "victor": 1}, {"casualties": [{"c": "", "comb": "Union", "k": "1", "t": "4", "w": "3"}, {"c": "22", "comb": "Confederacy", "k": "4-6", "t": "29-31", "w": "3"}], "coords": {"lat": 34.826389, "lon": -106.68888899999999}, "startDate": "4/14/1862", "title": "Battle of Peralta", "victor": 1}, {"casualties": [{"c": 515.0, "comb": "Union", "k": "845", "t": "4241", "w": "2851"}, {"c": "251", "comb": "Confederacy", "k": "510", "t": "3396", "w": "2635"}], "coords": {"lat": 37.675278000000006, "lon": -84.971111}, "startDate": "10/8/1862", "title": "Battle of Perryville", "victor": 1}, {"casualties": [{"c": "", "comb": "Union", "k": "", "t": "4", "w": ""}, {"c": "", "comb": "Confederacy", "k": "", "t": "26", "w": ""}], "coords": {"lat": 39.15316, "lon": -80.04278000000001}, "startDate": "6/3/1861", "title": "Battle of Philippi", "victor": 1}, {"casualties": [{"c": "", "comb": "Union", "k": "3", "t": "6", "w": "3"}, {"c": "3", "comb": "Confederacy", "k": "", "t": "5", "w": "2"}], "coords": {"lat": 32.631111, "lon": -111.41555600000001}, "startDate": "4/15/1862", "title": "Battle of Picacho Pass", "victor": 1}, {"casualties": [{"c": "", "comb": "Union", "k": "", "t": "1600", "w": ""}, {"c": "", "comb": "Confederacy", "k": "", "t": "500", "w": ""}], "coords": {"lat": 33.975, "lon": -84.759}, "startDate": "5/27/1864", "title": "Battle of Pickett's Mill", "victor": 2}, {"casualties": [{"c": "", "comb": "Union", "k": "", "t": "875", "w": ""}, {"c": "1000", "comb": "Confederacy", "k": "", "t": "1500", "w": ""}], "coords": {"lat": 38.2142, "lon": -78.8994}, "startDate": "6/5/1864", "title": "Battle of Piedmont", "victor": 1}, {"casualties": [{"c": "", "comb": "Union", "k": "", "t": "5", "w": "5"}, {"c": "", "comb": "Confederacy", "k": "", "t": "0", "w": ""}], "coords": {"lat": 36.916667, "lon": -76.435}, "startDate": "6/5/1861", "title": "Battle of Pig Point", "victor": 1}, {"casualties": [{"c": "", "comb": "Union", "k": "", "t": "56", "w": ""}, {"c": "", "comb": "Confederacy", "k": "", "t": "40", "w": ""}], "coords": {"lat": 34.229408, "lon": -92.003281}, "startDate": "10/25/1863", "title": "Battle of Pine Bluff", "victor": 1}, {"casualties": [{"c": "", "comb": "Union", "k": "", "t": "150", "w": ""}, {"c": "", "comb": "Confederacy", "k": "", "t": "100", "w": ""}], "coords": {"lat": 30.69, "lon": -91.206}, "startDate": "5/21/1863", "title": "Battle of Plains Store", "victor": 1}, {"casualties": [{"c": 375.0, "comb": "Union", "k": "150", "t": "1369", "w": "844"}, {"c": "426", "comb": "Confederacy", "k": "1200", "t": "1626", "w": ""}], "coords": {"lat": 31.851, "lon": -93.51}, "startDate": "4/9/1864", "title": "Battle of Pleasant Hill", "victor": 1}, {"casualties": [{"c": "", "comb": "Union", "k": "", "t": "2000", "w": ""}, {"c": "", "comb": "Confederacy", "k": "", "t": "800", "w": ""}], "coords": {"lat": 35.866479999999996, "lon": -76.7519}, "endDate": "4/20/1864", "startDate": "4/17/1864", "title": "Battle of Plymouth", "victor": 2}, {"casualties": [{"c": "", "comb": "Union", "k": "117", "t": "301", "w": "184"}, {"c": "", "comb": "Confederacy", "k": "34", "t": "252", "w": "218"}], "coords": {"lat": 33.638806, "lon": -93.004333}, "startDate": "4/18/1864", "title": "Battle of Poison Spring", "victor": 2}, {"casualties": [{"c": "", "comb": "Union", "k": "", "t": "861", "w": ""}, {"c": "", "comb": "Confederacy", "k": "", "t": "787", "w": ""}], "coords": {"lat": 31.9557, "lon": -91.0228}, "startDate": "5/1/1863", "title": "Battle of Port Gibson", "victor": 1}, {"casualties": [{"c": "", "comb": "Union", "k": "", "t": "1002", "w": ""}, {"c": "", "comb": "Confederacy", "k": "", "t": "816", "w": ""}], "coords": {"lat": 38.3002, "lon": -78.7933}, "startDate": "6/9/1862", "title": "Battle of Port Republic", "victor": 2}, {"casualties": [{"c": "", "comb": "Union", "k": "8", "t": "31", "w": "23"}, {"c": "4", "comb": "Confederacy", "k": "11", "t": "63", "w": "48"}], "coords": {"lat": 32.25, "lon": -80.66}, "endDate": "11/7/1861", "startDate": "11/3/1861", "title": "Battle of Port Royal", "victor": 1}, {"casualties": [{"comb": "Union"}, {"comb": "Confederacy"}, {"t": 550.0}], "coords": {"lat": 37.3116, "lon": -77.4028}, "endDate": "5/7/1864", "startDate": "5/6/1864", "title": "Battle of Port Walthall Junction", "victor": 1}, {"casualties": [{"c": "", "comb": "Union", "k": "", "t": "0", "w": ""}, {"c": "25", "comb": "Confederacy", "k": "", "t": "25", "w": ""}], "coords": {"lat": 43.663153, "lon": -70.22100400000001}, "startDate": "6/27/1863", "title": "Battle of Portland Harbor", "victor": 1}, {"casualties": [{"c": "", "comb": "Union", "k": "", "t": "100", "w": ""}, {"c": "", "comb": "Confederacy", "k": "", "t": "50", "w": ""}], "coords": {"lat": 33.7765, "lon": -93.36655999999999}, "endDate": "4/13/1864", "startDate": "4/9/1864", "title": "Battle of Prairie D' Ane", "victor": 1}, {"casualties": [{"c": "", "comb": "Union", "k": "", "t": "1251", "w": ""}, {"c": "", "comb": "Confederacy", "k": "", "t": "1317", "w": ""}], "coords": {"lat": 35.993056, "lon": -94.307778}, "startDate": "12/7/1862", "title": "Battle of Prairie Grove", "victor": 1}, {"casualties": [{"c": 21.0, "comb": "Union", "k": "23", "t": "113", "w": "69"}, {"c": "", "comb": "Confederacy", "k": "4", "t": "16", "w": "12"}], "coords": {"lat": 37.3657, "lon": -81.1017}, "endDate": "5/17/1862", "startDate": "5/15/1862", "title": "Battle of Princeton Court House", "victor": 2}, {"casualties": [{"comb": "Union"}, {"comb": "Confederacy"}, {"t": 6600.0}], "coords": {"lat": 37.3935, "lon": -77.4277}, "endDate": "5/16/1864", "startDate": "5/12/1864", "title": "Battle of Proctor's Creek", "victor": 2}, {"casualties": [{"c": 37.0, "comb": "Union", "k": "68", "t": "446", "w": "341"}, {"c": "415", "comb": "Confederacy", "k": "100", "t": "820", "w": "305"}], "coords": {"lat": 32.2453, "lon": -90.4333}, "startDate": "5/12/1863", "title": "Battle of Raymond", "victor": 1}, {"casualties": [{"c": "", "comb": "Union", "k": "", "t": "4000-5000", "w": ""}, {"c": "", "comb": "Confederacy", "k": "", "t": "2800", "w": ""}], "coords": {"lat": 34.5815, "lon": -84.9385}, "endDate": "5/15/1864", "startDate": "5/13/1864", "title": "Battle of Resaca", "victor": 4}, {"casualties": [{"c": "", "comb": "Union", "k": "", "t": "66", "w": ""}, {"c": "", "comb": "Confederacy", "k": "", "t": "", "w": ""}], "coords": {"lat": 37.2691, "lon": -78.2947}, "startDate": "4/6/1865", "title": "Battle of Rice's Station", "victor": 1}, {"casualties": [{"c": "", "comb": "Union", "k": "", "t": "46", "w": ""}, {"c": "", "comb": "Confederacy", "k": "", "t": "300", "w": ""}], "coords": {"lat": 38.866111, "lon": -79.93388900000001}, "startDate": "7/11/1861", "title": "Battle of Rich Mountain", "victor": 1}, {"casualties": [{"c": 4303.0, "comb": "Union", "k": "206", "t": "5353", "w": "844"}, {"c": "1", "comb": "Confederacy", "k": "78", "t": "451", "w": "372"}], "coords": {"lat": 37.6848, "lon": -84.2594}, "endDate": "8/30/1862", "startDate": "8/29/1862", "title": "Battle of Richmond", "victor": 2}, {"casualties": [{"c": "", "comb": "Union", "k": "", "t": "509", "w": ""}, {"c": "", "comb": "Confederacy", "k": "20", "t": "221", "w": "201"}], "coords": {"lat": 34.9112, "lon": -85.1015}, "startDate": "11/27/1863", "title": "Battle of Ringgold Gap", "victor": 2}, {"casualties": [{"c": "", "comb": "Union", "k": "18", "t": "124", "w": "106"}, {"c": "45", "comb": "Confederacy", "k": "8", "t": "97", "w": "44"}], "coords": {"lat": 33.052778, "lon": -81.099722}, "startDate": "2/3/1865", "title": "Battle of Rivers' Bridge", "victor": 1}, {"casualties": [{"c": "", "comb": "Union", "k": "6", "t": "25", "w": "19"}, {"c": "28", "comb": "Confederacy", "k": "40", "t": "148", "w": "80"}], "coords": {"lat": 39.3246, "lon": -92.5584}, "startDate": "1/8/1862", "title": "Battle of Roan's Tan Yard", "victor": 1}, {"casualties": [{"c": 13.0, "comb": "Union", "k": "37", "t": "264", "w": "214"}, {"c": "2500", "comb": "Confederacy", "k": "23", "t": "2581", "w": "58"}], "coords": {"lat": 35.8783, "lon": -75.6678}, "endDate": "2/8/1862", "startDate": "2/7/1862", "title": "Battle of Roanoke Island", "victor": 1}, {"casualties": [{"c": "", "comb": "Union", "k": "", "t": "837", "w": ""}, {"c": "", "comb": "Confederacy", "k": "", "t": "600", "w": ""}], "coords": {"lat": 34.74105, "lon": -85.01568}, "endDate": "5/13/1864", "startDate": "5/7/1864", "title": "Battle of Rocky Face Ridge", "victor": 1}, {"casualties": [{"c": "1", "comb": "Confederacy", "k": "6", "t": "11", "w": "4"}, {"c": "", "comb": "Indians", "k": "", "t": "110", "w": ""}], "coords": {"lat": 36.13, "lon": -96.28694399999999}, "startDate": "11/19/1861", "title": "Battle of Round Mountain", "victor": 2}, {"casualties": [{"c": "", "comb": "Union", "k": "", "t": "40", "w": ""}, {"c": "", "comb": "Confederacy", "k": "", "t": "91", "w": ""}], "coords": {"lat": 37.2498, "lon": -85.8935}, "startDate": "12/17/1861", "title": "Battle of Rowlett's Station", "victor": 4}, {"casualties": [{"c": "", "comb": "Union", "k": "36", "t": "220", "w": "184"}, {"c": "", "comb": "Confederacy", "k": "200", "t": "450", "w": ""}], "coords": {"lat": 39.219333, "lon": -78.133333}, "startDate": "7/20/1864", "title": "Battle of Rutherford's Farm", "victor": 1}, {"casualties": [{"c": "", "comb": "Union", "k": "", "t": "1148", "w": ""}, {"c": "7700", "comb": "Confederacy", "k": "", "t": "7700+", "w": ""}], "coords": {"lat": 37.30551, "lon": -78.22797}, "startDate": "4/6/1865", "title": "Battle of Sailor's Creek", "victor": 1}, {"casualties": [{"c": "", "comb": "Union", "k": "", "t": "177", "w": ""}, {"c": "", "comb": "Confederacy", "k": "", "t": "26", "w": ""}], "coords": {"lat": 34.3715467, "lon": -91.126083}, "startDate": "6/17/1862", "title": "Battle of Saint Charles", "victor": 1}, {"casualties": [{"c": "", "comb": "Union", "k": "", "t": "0", "w": ""}, {"c": "", "comb": "Confederacy", "k": "", "t": "0", "w": ""}], "coords": {"lat": 30.3852, "lon": -81.4998}, "endDate": "10/3/1862", "startDate": "10/1/1862", "title": "Battle of Saint John's Bluff", "victor": 1}, {"casualties": [{"c": "", "comb": "Union", "k": "", "t": "350", "w": ""}, {"c": "", "comb": "Confederacy", "k": "", "t": "250", "w": ""}], "coords": {"lat": 37.4322, "lon": -77.1506}, "startDate": "6/24/1864", "title": "Battle of Saint Mary's Church (Samaria Church)", "victor": 4}, {"casualties": [{"c": "", "comb": "Union", "k": "", "t": "4611", "w": ""}, {"c": "", "comb": "Confederacy", "k": "", "t": "4935", "w": ""}], "coords": {"lat": 38.288861, "lon": -77.53094399999999}, "endDate": "5/4/1863", "startDate": "5/3/1863", "title": "Battle of Salem Church", "victor": 2}, {"casualties": [{"c": "", "comb": "Union", "k": "", "t": "0", "w": ""}, {"c": "", "comb": "Confederacy", "k": "", "t": "364", "w": ""}], "coords": {"lat": 40.620556, "lon": -80.901667}, "startDate": "7/26/1863", "title": "Battle of Salineville", "victor": 1}, {"casualties": [{"c": "", "comb": "Union", "k": "", "t": "", "w": ""}, {"c": "50", "comb": "Confederacy", "k": "24", "t": "74", "w": ""}], "coords": {"lat": 37.744721999999996, "lon": -83.080833}, "endDate": "4/14/1864", "startDate": "4/13/1864", "title": "Battle of Salyersville", "victor": 1}, {"casualties": [{"c": 24.0, "comb": "Union", "k": "14", "t": "67", "w": "29"}, {"c": "", "comb": "Confederacy", "k": "30-40", "t": "87", "w": ""}], "coords": {"lat": 30.3242, "lon": -87.2817}, "startDate": "10/9/1861", "title": "Battle of Santa Rosa Island", "victor": 1}, {"casualties": [{"c": "", "comb": "Union", "k": "", "t": "", "w": ""}, {"c": "", "comb": "Confederacy", "k": "", "t": "", "w": ""}], "coords": {"lat": 36.945889, "lon": -77.453056}, "startDate": "6/28/1864", "title": "Battle of Sappony Church", "victor": 2}, {"casualties": [{"c": "", "comb": "Union", "k": "", "t": "1038", "w": ""}, {"c": "", "comb": "Confederacy", "k": "", "t": "473", "w": ""}], "coords": {"lat": 37.52219, "lon": -77.27096999999999}, "startDate": "6/29/1862", "title": "Battle of Savage's Station", "victor": 4}, {"casualties": [{"c": "", "comb": "Union", "k": "", "t": "685", "w": ""}, {"c": "", "comb": "Confederacy", "k": "", "t": "204", "w": ""}], "coords": {"lat": 32.703889000000004, "lon": -79.94805600000001}, "startDate": "6/16/1862", "title": "Battle of Secessionville", "victor": 2}, {"casualties": [{"c": "", "comb": "Union", "k": "", "t": "359", "w": ""}, {"c": "", "comb": "Confederacy", "k": "", "t": "2700", "w": ""}], "coords": {"lat": 32.424, "lon": -87.0237}, "startDate": "4/2/1865", "title": "Battle of Selma", "victor": 1}, {"casualties": [{"c": 647.0, "comb": "Union", "k": "790", "t": "5031", "w": "3594"}, {"c": "405", "comb": "Confederacy", "k": "980", "t": "6134", "w": "4749"}], "coords": {"lat": 37.5209, "lon": -77.3042}, "endDate": "6/1/1862", "startDate": "5/31/1862", "title": "Battle of Seven Pines", "victor": 4}, {"casualties": [{"comb": "Union"}, {"comb": "Confederacy"}, {"t": 10.0}], "coords": {"lat": 36.954722, "lon": -76.326667}, "endDate": "5/19/1861", "startDate": "5/18/1861", "title": "Battle of Sewell's Point", "victor": 4}, {"casualties": [{"c": 132.0, "comb": "Union", "k": "73", "t": "368", "w": "163"}, {"c": "6", "comb": "Confederacy", "k": "36", "t": "309", "w": "267"}], "coords": {"lat": 39.4279, "lon": -77.7786}, "endDate": "9/20/1862", "startDate": "9/19/1862", "title": "Battle of Shepherdstown", "victor": 2}, {"casualties": [{"c": 2885.0, "comb": "Union", "k": "1754", "t": "13047", "w": "8408"}, {"c": "959", "comb": "Confederacy", "k": "1728", "t": "10699", "w": "8012"}], "coords": {"lat": 35.15068, "lon": -88.32183}, "endDate": "4/7/1862", "startDate": "4/6/1862", "title": "Battle of Shiloh", "victor": 1}, {"casualties": [{"c": "", "comb": "Union", "k": "", "t": "0", "w": ""}, {"c": "", "comb": "Confederacy", "k": "", "t": "0", "w": ""}], "coords": {"lat": 32.695278, "lon": -80.22805600000001}, "startDate": "6/21/1862", "title": "Battle of Simmon's Bluff", "victor": 1}, {"casualties": [{"comb": "Union"}, {"comb": "Confederacy"}, {"t": 300.0}], "coords": {"lat": 39.308, "lon": -77.9824}, "endDate": "8/29/1864", "startDate": "8/25/1864", "title": "Battle of Smithfield Crossing", "victor": 4}, {"casualties": [{"c": "", "comb": "Union", "k": "", "t": "", "w": ""}, {"c": "", "comb": "Confederacy", "k": "", "t": "", "w": ""}], "coords": {"lat": 32.4964, "lon": -90.8}, "endDate": "5/1/1863", "startDate": "4/29/1863", "title": "Battle of Snyder's Bluff", "victor": 2}, {"casualties": [{"c": "", "comb": "Union", "k": "", "t": "114", "w": ""}, {"c": "", "comb": "Confederacy", "k": "", "t": "25", "w": ""}], "coords": {"lat": 36.4304, "lon": -76.3033}, "startDate": "4/19/1862", "title": "Battle of South Mills", "victor": 1}, {"casualties": [{"c": 75.0, "comb": "Union", "k": "443", "t": "2325", "w": "1807"}, {"c": "800", "comb": "Confederacy", "k": "325", "t": "2685", "w": "1560"}], "coords": {"lat": 39.485009999999996, "lon": -77.62161}, "startDate": "9/14/1862", "title": "Battle of South Mountain", "victor": 1}, {"casualties": [{"c": "", "comb": "Union", "k": "", "t": "657", "w": ""}, {"c": "", "comb": "Confederacy", "k": "", "t": "744", "w": ""}], "coords": {"lat": 30.684278000000003, "lon": -87.916375}, "endDate": "4/8/1865", "startDate": "3/27/1865", "title": "Battle of Spanish Fort", "victor": 1}, {"casualties": [{"c": 2258.0, "comb": "Union", "k": "2725", "t": "18399", "w": "13416"}, {"c": "5758", "comb": "Confederacy", "k": "1515", "t": "12687", "w": "5414"}], "coords": {"lat": 38.2242, "lon": -77.5981}, "endDate": "5/21/1864", "startDate": "5/8/1864", "title": "Battle of Spotsylvania Court House", "victor": 1}, {"casualties": [{"c": "", "comb": "Union", "k": "", "t": "350", "w": ""}, {"c": "", "comb": "Confederacy", "k": "", "t": "500", "w": ""}], "coords": {"lat": 35.7374, "lon": -86.9323}, "startDate": "11/29/1864", "title": "Battle of Spring Hill", "victor": 1}, {"casualties": [{"c": 6.0, "comb": "Union", "k": "30", "t": "231", "w": "195"}, {"c": "", "comb": "Confederacy", "k": "", "t": "290", "w": ""}], "coords": {"lat": 37.195, "lon": -93.3021}, "startDate": "1/8/1863", "title": "Battle of Springfield II", "victor": 1}, {"casualties": [{"c": "", "comb": "Union", "k": "", "t": "1", "w": "1"}, {"c": "", "comb": "Confederacy", "k": "", "t": "0", "w": ""}], "coords": {"lat": 32.93352, "lon": -113.39255}, "startDate": "3/30/1862", "title": "Battle of Stanwix Station", "victor": 1}, {"casualties": [{"c": 30.0, "comb": "Union", "k": "42", "t": "116", "w": "44"}, {"c": "", "comb": "Confederacy", "k": "10", "t": "34", "w": "24"}], "coords": {"lat": 36.8857, "lon": -78.7044}, "startDate": "6/25/1864", "title": "Battle of Staunton River Bridge", "victor": 2}, {"casualties": [{"c": 454.0, "comb": "Union", "k": "16", "t": "515", "w": "45"}, {"c": "10", "comb": "Confederacy", "k": "26", "t": "121", "w": "85"}], "coords": {"lat": 30.6834, "lon": -91.6596}, "startDate": "9/29/1863", "title": "Battle of Stirling's Plantation", "victor": 2}, {"casualties": [{"c": 3686.0, "comb": "Union", "k": "1677", "t": "12906", "w": "7543"}, {"c": "", "comb": "Confederacy", "k": "1294", "t": "11739", "w": "7945"}], "coords": {"lat": 35.88, "lon": -86.435}, "endDate": "1/2/1863", "startDate": "12/31/1862", "title": "Battle of Stones River", "victor": 1}, {"casualties": [{"c": "", "comb": "Union", "k": "2", "t": "2", "w": ""}, {"c": "", "comb": "Indians", "k": "", "t": "3", "w": ""}], "coords": {"lat": 46.8514, "lon": -100.1843}, "startDate": "7/28/1863", "title": "Battle of Stony Lake", "victor": 1}, {"casualties": [{"c": "", "comb": "Union", "k": "", "t": "2350", "w": ""}, {"c": "", "comb": "Confederacy", "k": "", "t": "139", "w": ""}], "coords": {"lat": 34.90936, "lon": -86.98814}, "endDate": "9/25/1864", "startDate": "9/23/1864", "title": "Battle of Sulpher Creek Trestle", "victor": 2}, {"casualties": [{"comb": "Union"}, {"comb": "Confederacy"}, {"t": 1000.0}], "coords": {"lat": 39.2499, "lon": -77.9586}, "startDate": "8/21/1864", "title": "Battle of Summit Point", "victor": 4}, {"casualties": [{"c": "", "comb": "Union", "k": "", "t": "370", "w": ""}, {"c": "", "comb": "Confederacy", "k": "", "t": "600", "w": ""}], "coords": {"lat": 37.1975, "lon": -77.5625}, "startDate": "4/2/1865", "title": "Battle of Sutherland's Station", "victor": 1}, {"casualties": [{"comb": "Union"}, {"comb": "Confederacy"}, {"t": 990.0}], "coords": {"lat": 37.2861, "lon": -77.4118}, "startDate": "5/9/1864", "title": "Battle of Swift Creek", "victor": 4}, {"casualties": [{"c": "", "comb": "Union", "k": "", "t": "0", "w": ""}, {"c": "", "comb": "Confederacy", "k": "", "t": "0", "w": ""}], "coords": {"lat": 27.9415, "lon": -82.4559}, "endDate": "7/1/1862", "startDate": "6/30/1862", "title": "Battle of Tampa", "victor": 2}, {"casualties": [{"c": "", "comb": "Union", "k": "", "t": "1906", "w": ""}, {"c": "", "comb": "Confederacy", "k": "", "t": "300", "w": ""}], "coords": {"lat": 35.798, "lon": -86.9063}, "startDate": "3/5/1863", "title": "Battle of Thompson's Station", "victor": 2}, {"casualties": [{"comb": "Union"}, {"comb": "Confederacy"}, {"t": 100.0}], "coords": {"lat": 38.8243, "lon": -77.7148}, "startDate": "8/28/1862", "title": "Battle of Thoroughfare Gap", "victor": 2}, {"casualties": [{"c": "", "comb": "Union", "k": "", "t": "57", "w": ""}, {"c": "", "comb": "Confederacy", "k": "", "t": "350", "w": ""}], "coords": {"lat": 38.9429, "lon": -78.4458}, "startDate": "10/9/1864", "title": "Battle of Tom's Brook", "victor": 1}, {"casualties": [{"c": 52.0, "comb": "Union", "k": "679", "t": "731", "w": ""}, {"c": "369", "comb": "Confederacy", "k": "263", "t": "1593", "w": "961"}], "coords": {"lat": 37.634, "lon": -77.2987}, "endDate": "5/30/1864", "startDate": "5/28/1864", "title": "Battle of Totopotomoy Creek", "victor": 4}, {"casualties": [{"comb": "Union"}, {"comb": "Confederacy"}, {"t": 40.0}], "coords": {"lat": 35.6186, "lon": -77.1431}, "startDate": "6/5/1862", "title": "Battle of Tranter's Creek", "victor": 1}, {"casualties": [{"c": 624.0, "comb": "Union", "k": "150", "t": "1512", "w": "738"}, {"c": "", "comb": "Confederacy", "k": "", "t": "813", "w": ""}], "coords": {"lat": 38.04973, "lon": -78.06604}, "endDate": "6/12/1864", "startDate": "6/11/1864", "title": "Battle of Trevilian Station", "victor": 2}, {"casualties": [{"c": "", "comb": "Union", "k": "69", "t": "602", "w": "533"}, {"c": "", "comb": "Confederacy", "k": "215", "t": "1340", "w": "1125"}], "coords": {"lat": 34.255278000000004, "lon": -88.737222}, "endDate": "7/15/1864", "startDate": "7/14/1864", "title": "Battle of Tupelo", "victor": 1}, {"casualties": [{"comb": "Union"}, {"comb": "Confederacy"}, {"t": 400.0}], "coords": {"lat": 38.9851, "lon": -77.8343}, "startDate": "6/21/1863", "title": "Battle of Upperville", "victor": 4}, {"casualties": [{"c": "", "comb": "Union", "k": "", "t": "850", "w": ""}, {"c": "", "comb": "Confederacy", "k": "", "t": "35", "w": ""}], "coords": {"lat": 33.7209, "lon": -84.4704}, "endDate": "8/7/1864", "startDate": "8/5/1864", "title": "Battle of Utoy Creek", "victor": 4}, {"casualties": [{"c": 204.0, "comb": "Union", "k": "68", "t": "432", "w": "160"}, {"c": "", "comb": "Confederacy", "k": "36", "t": "187", "w": "150"}], "coords": {"lat": 33.692614, "lon": -106.914822}, "endDate": "2/21/1862", "startDate": "2/20/1862", "title": "Battle of Valverde", "victor": 2}, {"casualties": [{"c": "", "comb": "Union", "k": "", "t": "62", "w": ""}, {"c": "", "comb": "Confederacy", "k": "", "t": "373", "w": ""}], "coords": {"lat": 35.92523, "lon": -86.2047}, "startDate": "3/20/1863", "title": "Battle of Vaught's Hill", "victor": 1}, {"casualties": [{"c": "", "comb": "Union", "k": "", "t": "", "w": ""}, {"c": "", "comb": "Confederacy", "k": "", "t": "", "w": ""}], "coords": {"lat": 30.1955, "lon": -92.0143}, "startDate": "4/17/1863", "title": "Battle of Vermillion Bayou", "victor": 1}, {"casualties": [{"c": "", "comb": "Union", "k": "", "t": "", "w": ""}, {"c": "", "comb": "Confederacy", "k": "", "t": "", "w": ""}], "coords": {"lat": 37.709167, "lon": -76.924722}, "startDate": "3/2/1864", "title": "Battle of Walkerton", "victor": 2}, {"casualties": [{"comb": "Union"}, {"comb": "Confederacy"}, {"t": 1500.0}], "coords": {"lat": 37.344444, "lon": -77.391389}, "startDate": "5/20/1864", "title": "Battle of Ware Bottom Church", "victor": 2}, {"casualties": [{"c": "", "comb": "Union", "k": "", "t": "40", "w": ""}, {"c": "", "comb": "Confederacy", "k": "", "t": "60", "w": ""}], "coords": {"lat": 35.5443, "lon": -77.0601}, "endDate": "4/20/1863", "startDate": "3/30/1863", "title": "Battle of Washington, North Carolina", "victor": 4}, {"casualties": [{"c": "", "comb": "Union", "k": "", "t": "420", "w": ""}, {"c": "", "comb": "Confederacy", "k": "", "t": "408", "w": ""}], "coords": {"lat": 35.001999999999995, "lon": -85.38}, "endDate": "10/29/1863", "startDate": "10/28/1863", "title": "Battle of Wauhatchie", "victor": 1}, {"casualties": [{"c": "", "comb": "Union", "k": "", "t": "190", "w": ""}, {"c": "", "comb": "Confederacy", "k": "", "t": "250", "w": ""}], "coords": {"lat": 33.08972, "lon": -82.01583000000001}, "startDate": "12/4/1864", "title": "Battle of Waynesboro (Georgia)", "victor": 1}, {"casualties": [{"c": "", "comb": "Union", "k": "", "t": "9", "w": ""}, {"c": "", "comb": "Confederacy", "k": "", "t": "1500", "w": ""}], "coords": {"lat": 38.0656, "lon": -78.8962}, "startDate": "3/2/1865", "title": "Battle of Waynesboro (Virginia)", "victor": 1}, {"casualties": [{"c": "", "comb": "Union", "k": "7", "t": "36", "w": "29"}, {"c": "", "comb": "Confederacy", "k": "19", "t": "47", "w": "28"}], "coords": {"lat": 32.876389, "lon": -85.173889}, "startDate": "4/16/1865", "title": "Battle of West Point", "victor": 1}, {"casualties": [{"c": "", "comb": "Union", "k": "", "t": "1500", "w": ""}, {"c": "", "comb": "Confederacy", "k": "", "t": "1500", "w": ""}], "coords": {"lat": 39.03, "lon": -94.594444}, "startDate": "10/23/1864", "title": "Battle of Westport", "victor": 1}, {"casualties": [{"comb": "Union"}, {"comb": "Confederacy"}, {"t": 150.0}], "coords": {"lat": 35.2272, "lon": -77.8464}, "startDate": "12/16/1862", "title": "Battle of White Hall", "victor": 4}, {"casualties": [{"c": "", "comb": "Union", "k": "", "t": "1870", "w": ""}, {"c": "", "comb": "Confederacy", "k": "", "t": "800", "w": ""}], "coords": {"lat": 37.148444, "lon": -77.519667}, "startDate": "3/31/1865", "title": "Battle of White Oak Road", "victor": 1}, {"casualties": [{"c": "", "comb": "Union", "k": "", "t": "100", "w": ""}, {"c": "", "comb": "Confederacy", "k": "3", "t": "15", "w": "12"}], "coords": {"lat": 37.4708, "lon": -77.21025}, "startDate": "6/30/1862", "title": "Battle of White Oak Swamp", "victor": 4}, {"casualties": [{"c": "", "comb": "Union", "k": "22", "t": "60", "w": "38"}, {"c": 156.0, "comb": "Indians", "k": "200", "t": "356", "w": ""}], "coords": {"lat": 46.1697, "lon": -98.8557}, "endDate": "9/5/1863", "startDate": "9/3/1863", "title": "Battle of White Stone Hill", "victor": 1}, {"casualties": [{"c": "", "comb": "Union", "k": "", "t": "51", "w": ""}, {"c": "", "comb": "Confederacy", "k": "", "t": "10", "w": ""}], "coords": {"lat": 35.24607547, "lon": -91.67576911}, "startDate": "5/19/1862", "title": "Battle of Whitney's Lane", "victor": 1}, {"casualties": [{"c": "", "comb": "Union", "k": "", "t": "2283", "w": ""}, {"c": "", "comb": "Confederacy", "k": "", "t": "1682", "w": ""}], "coords": {"lat": 37.2642, "lon": -76.6659}, "startDate": "5/5/1862", "title": "Battle of Williamsburg", "victor": 4}, {"casualties": [{"comb": "Union"}, {"comb": "Confederacy"}, {"t": 1760.0}], "coords": {"lat": 39.633333, "lon": -77.716667}, "endDate": "7/16/1863", "startDate": "7/6/1863", "title": "Battle of Williamsport", "victor": 4}, {"casualties": [{"c": "", "comb": "Union", "k": "", "t": "305", "w": ""}, {"c": "", "comb": "Confederacy", "k": "", "t": "845", "w": ""}], "coords": {"lat": 34.1795, "lon": -77.954}, "endDate": "2/22/1865", "startDate": "2/11/1865", "title": "Battle of Wilmington", "victor": 1}, {"casualties": [{"c": 186.0, "comb": "Union", "k": "258", "t": "1317", "w": "873"}, {"c": "", "comb": "Confederacy", "k": "277", "t": "1232", "w": "945"}], "coords": {"lat": 37.101, "lon": -93.4078}, "startDate": "8/10/1861", "title": "Battle of Wilson's Creek", "victor": 2}, {"casualties": [{"c": "", "comb": "Union", "k": "6", "t": "46", "w": "40"}, {"c": "", "comb": "Confederacy", "k": "", "t": "200", "w": ""}], "coords": {"lat": 37.3067, "lon": -76.9967}, "startDate": "5/24/1864", "title": "Battle of Wilson's Wharf", "victor": 1}, {"casualties": [{"c": "", "comb": "Union", "k": "7", "t": "41", "w": "34"}, {"c": "", "comb": "Indians", "k": "7-15", "t": "7-15", "w": ""}], "coords": {"lat": 44.701111, "lon": -95.435833}, "startDate": "9/23/1862", "title": "Battle of Wood Lake", "victor": 1}, {"casualties": [{"c": "", "comb": "Union", "k": "", "t": "1101", "w": ""}, {"c": "", "comb": "Confederacy", "k": "", "t": "1500", "w": ""}], "coords": {"lat": 35.224000000000004, "lon": -77.5297}, "endDate": "3/10/1865", "startDate": "3/7/1865", "title": "Battle of Wyse Fork", "victor": 1}, {"casualties": [{"c": "", "comb": "Union", "k": "", "t": "360", "w": ""}, {"c": "", "comb": "Confederacy", "k": "", "t": "500", "w": ""}], "coords": {"lat": 30.9985, "lon": -91.8668}, "startDate": "5/18/1864", "title": "Battle of Yellow Bayou", "victor": 1}, {"casualties": [{"c": "", "comb": "Union", "k": "", "t": "625", "w": ""}, {"c": "300", "comb": "Confederacy", "k": "", "t": "300", "w": ""}], "coords": {"lat": 37.6599, "lon": -77.4552}, "startDate": "5/11/1864", "title": "Battle of Yellow Tavern", "victor": 1}, {"casualties": [{"c": "", "comb": "Union", "k": "", "t": "1758", "w": ""}, {"c": "", "comb": "Confederacy", "k": "", "t": "1300", "w": ""}], "coords": {"lat": 37.1431, "lon": -77.5116}, "endDate": "10/28/1864", "startDate": "10/27/1864", "title": "Battle of the Boydton Plank Road", "victor": 4}, {"casualties": [{"c": 1413.0, "comb": "Union", "k": "504", "t": "3798", "w": "1881"}, {"c": "403", "comb": "Confederacy", "k": "361", "t": "1491", "w": "727"}], "coords": {"lat": 37.2183, "lon": -77.3777}, "startDate": "7/30/1864", "title": "Battle of the Crater", "victor": 2}, {"casualties": [{"c": "", "comb": "Union", "k": "", "t": "0", "w": ""}, {"c": "", "comb": "Confederacy", "k": "", "t": "0", "w": ""}], "coords": {"lat": 29.156999999999996, "lon": -89.25399999999999}, "startDate": "10/12/1861", "title": "Battle of the Head of Passes", "victor": 2}, {"casualties": [{"c": 3383.0, "comb": "Union", "k": "2246", "t": "17666", "w": "12037"}, {"c": "1690", "comb": "Confederacy", "k": "1477", "t": "11033", "w": "7866"}], "coords": {"lat": 38.3164, "lon": -77.7597}, "endDate": "5/7/1864", "startDate": "5/5/1864", "title": "Battle of the Wilderness", "victor": 1}, {"casualties": [{"c": "", "comb": "Union", "k": "21", "t": "67", "w": "46"}, {"c": "", "comb": "Indians", "k": "246", "t": "410", "w": 164.0}], "coords": {"lat": 42.146192, "lon": -111.91403400000002}, "startDate": "1/29/1863", "title": "Bear River Massacre", "victor": 1}, {"casualties": [{"c": "", "comb": "Union", "k": "", "t": "0", "w": ""}, {"c": "", "comb": "Confederacy", "k": "", "t": "0", "w": ""}], "coords": {"lat": 29.9575, "lon": -90.063056}, "endDate": "5/1/1862", "startDate": "4/25/1862", "title": "Capture of New Orleans", "victor": 1}, {"casualties": [{"c": "", "comb": "Union", "k": "", "t": "0", "w": ""}, {"c": "", "comb": "Confederacy", "k": "", "t": "", "w": ""}], "coords": {"lat": 32.221667, "lon": -110.92638899999999}, "startDate": "5/20/1862", "title": "Capture of Tucson", "victor": 1}, {"casualties": [{"c": 349.0, "comb": "Union", "k": "", "t": "5824", "w": "4722"}, {"c": "", "comb": "Confederacy", "k": "", "t": "8000", "w": ""}], "coords": {"lat": 35.045, "lon": -85.309},